City_ID,City,Lat,Lng,Max Temp,Humidity,Cloudiness,Wind Speed,Country,Date
0,port mathurin,-19.6833,63.4167,295.89,81,100,10.55,MU,1728571039
1,ushuaia,-54.8,-68.3,279.96,65,75,10.29,AR,1728571041
2,ceelbuur,4.685,46.6176,305.61,38,81,7.21,SO,1728571042
3,petropavlovsk-kamchatsky,53.0452,158.6483,272.48,64,0,3.0,RU,1728571044
4,yellowknife,62.456,-114.3525,273.94,100,75,2.06,CA,1728571046
5,banjarmasin,-3.3244,114.591,300.23,88,98,1.01,ID,1728570808
6,nar'yan-mar,67.6713,53.087,270.49,89,8,5.21,RU,1728571050
7,bethel,41.3712,-73.414,284.76,62,0,2.57,US,1728571052
8,vorkuta,67.5,64.0,265.06,96,10,1.26,RU,1728571053
9,ust-nera,64.5667,143.2,264.68,80,93,1.95,RU,1728571054
10,ruyigi,-3.45,30.3167,294.14,60,81,1.88,BI,1728571056
11,nemuro,43.3236,145.575,285.64,67,100,11.22,JP,1728571057
12,nagqu,31.5,92.0,274.94,86,83,1.81,CN,1728571059
13,iqaluit,63.7506,-68.5145,275.0,80,40,2.06,CA,1728571060
14,hamilton,39.1834,-84.5333,289.77,55,0,3.6,US,1728570956
15,port alfred,-33.5906,26.891,292.69,85,51,5.36,ZA,1728571062
16,east london,-33.0153,27.9116,296.67,73,20,7.72,ZA,1728570958
17,aasiaat,68.7098,-52.8699,271.27,60,6,8.43,GL,1728571065
18,waitangi,-43.9535,-176.5597,280.27,83,71,6.95,NZ,1728571066
19,ribeira grande,38.5167,-28.7,296.91,68,40,12.86,PT,1728571067
20,essaouira,31.5125,-9.77,298.87,73,40,5.14,MA,1728571068
21,albany,42.6001,-73.9662,282.76,67,21,1.34,US,1728570829
22,port-aux-francais,-49.35,70.2167,277.16,97,100,20.34,TF,1728571071
23,blackmans bay,-43.0167,147.3167,283.0,58,62,0.89,AU,1728571072
24,adamstown,-25.066,-130.1015,294.17,85,100,7.29,PN,1728571074
25,christchurch,-43.5333,172.6333,280.34,77,5,3.7,NZ,1728570892
26,ha'il,27.5219,41.6907,307.16,13,0,3.09,SA,1728571076
27,whitehorse,60.7161,-135.0538,274.83,85,100,3.6,CA,1728571077
28,bredasdorp,-34.5322,20.0403,292.09,51,100,8.52,ZA,1728571079
29,namdrik,5.5994,168.1028,301.13,76,24,4.05,MH,1728571080
30,college,64.8569,-147.8028,272.29,93,100,1.54,US,1728571081
31,susuman,62.7833,148.1667,258.51,93,50,0.82,RU,1728570827
32,andergrove,-21.0833,149.1833,295.13,82,0,3.99,AU,1728571084
33,aras-asan,8.8908,126.3033,299.14,87,97,1.49,PH,1728571086
34,margaret river,-33.95,115.0667,287.47,59,35,4.37,AU,1728571088
35,kotel'nich,58.3089,48.348,275.27,70,100,3.29,RU,1728571089
36,grytviken,-54.2811,-36.5092,273.08,92,48,1.28,GS,1728571092
37,avarua,-21.2078,-159.775,296.18,73,75,5.66,CK,1728571093
38,flying fish cove,-10.4217,105.6791,298.97,94,75,4.63,CX,1728571094
39,deir ez-zor,35.3359,40.1408,304.57,12,0,1.77,SY,1728571096
40,talcahuano,-36.7167,-73.1167,283.97,82,75,3.6,CL,1728571020
41,sinop,41.7711,34.8709,288.65,88,26,1.25,TR,1728571098
42,ibipeba,-11.6408,-42.0111,308.08,21,59,4.35,BR,1728571099
43,san antonio de pale,-1.4014,5.6325,298.17,78,61,3.59,GQ,1728571100
44,lubao,14.9167,120.55,298.99,89,96,2.08,PH,1728571102
45,puerto ayora,-0.7393,-90.3518,292.9,95,93,4.02,EC,1728571103
46,corn island,12.1694,-83.0418,301.04,78,94,5.55,NI,1728571104
47,masterton,-40.9597,175.6575,275.91,95,0,1.83,NZ,1728571106
48,bilibino,68.0546,166.4372,259.28,94,79,1.93,RU,1728571107
49,inhambane,-23.865,35.3833,299.14,57,0,3.6,MZ,1728571003
50,sesimbra,38.4445,-9.1015,295.96,68,2,2.91,PT,1728571109
51,mabaruma,8.2,-59.7833,307.41,44,73,2.87,GY,1728571111
52,mount isa,-20.7333,139.5,297.02,9,0,5.14,AU,1728571112
53,qarauyl,48.9451,79.255,288.69,25,7,3.99,KZ,1728571113
54,muroto-misakicho,33.2833,134.15,295.85,64,99,2.7,JP,1728571115
55,abatskoye,56.2875,70.4555,271.85,82,100,6.88,RU,1728571116
56,guerrero negro,27.9769,-114.0611,293.13,84,5,3.02,MX,1728571117
57,afaahiti,-17.75,-149.2833,295.72,89,100,9.07,PF,1728571119
58,salinopolis,-0.6136,-47.3561,302.87,68,43,4.07,BR,1728571120
59,port elizabeth,-33.918,25.5701,292.31,90,75,10.29,ZA,1728571016
60,riberalta,-10.9833,-66.1,300.26,78,75,2.06,BO,1728571123
61,lockwood,45.8191,-108.4149,288.09,41,75,3.09,US,1728571124
62,bardai,11.65,7.2333,304.5,44,31,1.95,NG,1728571125
63,papatowai,-46.5619,169.4708,279.21,92,12,2.55,NZ,1728571126
64,invercargill,-46.4,168.35,278.16,95,22,0.45,NZ,1728571128
65,tarumovka,44.0761,46.5361,290.69,43,100,3.04,RU,1728571129
66,taitung city,22.7583,121.1444,297.21,84,39,4.66,TW,1728571130
67,west helena,34.5507,-90.6418,294.46,45,0,3.43,US,1728571131
68,anadyr,64.75,177.4833,273.43,93,75,4.0,RU,1728571133
69,lihue,21.9789,-159.3672,298.92,73,0,7.2,US,1728571134
70,balmazujvaros,47.6167,21.35,296.25,46,48,5.86,HU,1728571135
71,uray,60.1247,64.7758,270.57,59,6,4.07,RU,1728571136
72,swift current,50.2834,-107.8014,279.6,81,0,8.23,CA,1728571137
73,zhob,31.3411,69.4481,296.53,12,0,3.52,PK,1728571139
74,hithadhoo,-0.6,73.0833,300.58,77,100,8.21,MV,1728571140
75,jamestown,42.097,-79.2353,283.72,70,100,4.12,US,1728571141
76,nova sintra,14.8667,-24.7167,299.67,79,9,10.96,CV,1728571143
77,mil'kovo,55.6078,37.7956,282.21,64,62,3.56,RU,1728571145
78,ust'-ilimsk,58.0006,102.6619,271.59,94,100,2.82,RU,1728571147
79,ad dilam,23.9915,47.1627,306.16,12,0,2.33,SA,1728571148
80,el jadid,33.2549,-8.506,296.07,73,31,4.05,MA,1728571149
81,bolama,11.5833,-15.4667,297.47,89,100,5.72,GW,1728571151
82,saipan,15.1355,145.701,301.54,78,40,3.6,MP,1728571152
83,sodra sandby,56.5667,16.6167,288.09,96,100,5.85,SE,1728571154
84,san salvador de jujuy,-24.1946,-65.2971,288.89,86,100,2.29,AR,1728571150
85,livingston,55.9029,-3.5226,283.09,56,40,4.63,GB,1728571156
86,vilyuysk,63.7553,121.6247,265.08,98,94,0.95,RU,1728571158
87,tura,25.5198,90.2201,296.44,90,14,1.97,IN,1728571159
88,yuzhno-kurilsk,44.0306,145.8556,284.11,70,100,9.61,RU,1728571160
89,kerikeri,-35.2268,173.9474,283.66,88,100,0.89,NZ,1728571161
90,hawaiian paradise park,19.5933,-154.9731,295.31,99,75,2.57,US,1728571163
91,udachny,66.4167,112.4,259.68,100,91,0.91,RU,1728571164
92,georgetown,5.4112,100.3354,300.11,88,40,1.54,MY,1728571150
93,dunedin,-45.8742,170.5036,279.94,78,54,2.75,NZ,1728571167
94,heunghae,36.1125,129.3522,289.38,78,1,1.87,KR,1728571168
95,orchard homes,46.8633,-114.0484,284.23,69,100,2.57,US,1728571170
96,vilyuchinsk,52.9306,158.4028,273.3,71,0,3.35,RU,1728571171
97,uturoa,-16.7333,-151.4333,298.64,78,100,9.97,PF,1728571172
98,leh,34.1667,77.5833,278.09,20,13,2.27,IN,1728571174
99,ballina,-28.8667,153.5667,290.59,81,100,0.16,AU,1728571175
100,massawa,15.6097,39.45,305.73,59,6,2.42,ER,1728571176
101,codrington,-38.2667,141.9667,279.73,87,0,3.47,AU,1728571178
102,ola,59.5833,151.2833,270.84,67,22,2.13,RU,1728571179
103,hammerfest,70.6634,23.6821,278.4,70,20,5.66,NO,1728571180
104,olonkinbyen,70.9221,-8.7187,270.81,79,100,16.93,SJ,1728571182
105,kaliganj,23.4095,89.1402,299.75,86,3,2.29,BD,1728571183
106,hermanus,-34.4187,19.2345,291.37,68,97,8.52,ZA,1728571184
107,valdivia,-39.8142,-73.2459,285.2,79,96,2.18,CL,1728571186
108,sitia,35.2,26.0986,297.41,70,35,1.48,GR,1728571187
109,kone,-21.0595,164.8658,291.18,90,9,1.26,NC,1728571188
110,moroni,-11.7022,43.2551,299.13,77,2,5.34,KM,1728571190
111,jaisalmer,26.9147,70.9181,306.77,14,1,1.89,IN,1728571191
112,peace river,56.2501,-117.286,275.74,95,40,4.12,CA,1728570901
113,vernon,50.2581,-119.2691,279.51,73,82,3.09,CA,1728571194
114,badger,64.8,-147.5333,272.29,93,100,1.54,US,1728571195
115,zhaoyuan,37.3592,120.3964,285.5,75,0,1.46,CN,1728571196
116,vorgashor,67.5833,63.95,264.74,96,10,1.34,RU,1728571198
117,sol'-iletsk,51.1631,54.9918,285.4,56,100,4.91,RU,1728571199
118,saldanha,-33.0117,17.9442,290.15,66,100,3.96,ZA,1728571200
119,portland,45.5234,-122.6762,282.25,94,75,1.34,US,1728571202
120,labuan,5.2767,115.2417,302.35,83,20,1.54,MY,1728571203
121,chauk,20.8833,94.8167,301.28,72,27,2.04,MM,1728571204
122,arar,30.9753,41.0381,308.16,6,0,5.14,SA,1728571206
123,kodiak,57.79,-152.4072,269.88,93,0,3.09,US,1728571207
124,carauari,-4.8828,-66.8958,307.67,48,86,0.25,BR,1728571209
125,glendive,47.1053,-104.7125,284.94,50,0,0.0,US,1728571210
126,ibiza,38.9088,1.433,297.05,50,20,5.14,ES,1728571212
127,porto belo,-27.1578,-48.5531,293.2,98,100,8.01,BR,1728571213
128,acarau,-2.8856,-40.12,304.73,55,98,8.84,BR,1728571214
129,general villegas,-35.0328,-63.0125,296.29,29,58,3.78,AR,1728571216
130,edinburgh of the seven seas,-37.0676,-12.3116,286.73,77,100,11.74,SH,1728571217
131,naze,28.3667,129.4833,293.66,77,3,1.87,JP,1728571218
132,kavieng,-2.5744,150.7967,300.42,80,100,3.27,PG,1728571220
133,torit,4.4133,32.5678,300.34,69,56,0.39,SS,1728571221
134,talas,38.6908,35.5538,297.52,22,0,4.63,TR,1728571222
135,novaya lyalya,59.055,60.599,270.99,55,6,4.15,RU,1728571223
136,sabang,5.8933,95.3214,301.54,76,100,9.53,ID,1728571225
137,utrik,11.2278,169.8474,301.28,78,95,5.41,MH,1728571226
138,atafu village,-8.5421,-172.5159,301.02,76,53,5.06,TK,1728571229
139,reggane,26.7158,0.1714,313.24,15,0,5.49,DZ,1728571230
140,qaqortoq,60.7167,-46.0333,276.61,71,19,2.31,GL,1728571232
141,jianshui,23.6363,102.8264,290.91,96,98,1.33,CN,1728571233
142,shibganj,24.6829,88.1598,302.16,62,25,1.12,BD,1728571234
143,paka,4.6374,103.4368,299.11,89,96,0.0,MY,1728571236
144,borrazopolis,-23.9411,-51.5875,297.21,63,100,1.44,BR,1728571237
145,cabedelo,-6.9811,-34.8339,303.52,66,94,5.08,BR,1728571238
146,tazovsky,67.4667,78.7,271.43,89,93,9.32,RU,1728571240
147,harper,4.375,-7.7169,300.31,77,87,3.81,LR,1728571241
148,taro,-8.3862,115.28,292.71,96,89,0.59,ID,1728571242
149,rongelap,11.1635,166.8941,300.42,82,100,6.59,MH,1728571244
150,teodoro sampaio,-22.5325,-52.1675,296.07,83,100,1.5,BR,1728571245
151,biharamulo,-2.6319,31.3089,297.23,52,79,1.88,TZ,1728571246
152,miles city,46.4083,-105.8406,282.69,49,0,5.14,US,1728571248
153,selfoss,63.9331,-20.9971,274.84,51,98,6.32,IS,1728571249
154,plastun,44.7561,136.2939,280.99,94,100,2.43,RU,1728571251
155,kourou,5.1552,-52.6478,304.59,57,42,3.63,GF,1728571252
156,floro,61.5996,5.0328,281.13,61,40,5.66,NO,1728571253
157,libreville,0.3925,9.4537,302.16,74,20,4.63,GA,1728571255
158,hami,42.8,93.45,289.98,29,0,2.37,CN,1728571256
159,hotan,37.0997,79.9269,291.89,30,24,3.19,CN,1728571257
160,west island,-12.1568,96.8225,300.14,78,20,7.2,CC,1728571259
161,saudarkrokur,65.7461,-19.6394,274.22,80,81,5.47,IS,1728571260
162,ilulissat,69.2167,-51.1,273.16,47,0,6.69,GL,1728571261
163,puerto natales,-51.7236,-72.4875,280.4,70,40,10.8,CL,1728571263
164,eynesil,41.0645,39.1438,294.5,87,100,2.02,TR,1728571264
165,stanley,54.868,-1.6985,282.75,63,20,5.14,GB,1728571265
166,lazarevskoye,43.9061,39.3331,294.19,61,100,1.79,RU,1728571267
167,conception bay south,47.4999,-52.9981,287.84,94,100,5.9,CA,1728571268
168,kyaikto,17.3,97.0167,300.16,82,18,0.89,MM,1728571270
169,rufino,-34.2683,-62.7126,295.68,32,62,2.58,AR,1728571271
170,hiratacho,35.4333,132.8167,288.13,94,75,3.6,JP,1728571272
171,weno,7.4515,151.8468,300.12,89,100,1.54,FM,1728571274
172,nova vicosa,-17.8919,-39.3719,301.44,63,79,5.35,BR,1728571275
173,koryazhma,61.3143,47.1691,274.91,59,100,4.0,RU,1728571276
174,shahrak,34.1074,64.3052,286.31,26,0,2.3,AF,1728571278
175,zhuanghe,39.7008,122.9911,285.04,46,0,1.95,CN,1728571240
176,hasaki,35.7333,140.8333,293.07,69,16,7.86,JP,1728571283
177,oum hadjer,13.2954,19.6966,310.0,21,6,0.98,TD,1728571284
178,lupane,-18.9315,27.807,305.48,9,3,5.81,ZW,1728571285
179,pendleton,45.6721,-118.7886,281.93,66,0,0.0,US,1728571286
180,ad dabbah,18.05,30.95,312.53,11,4,6.81,SD,1728571288
181,montagu,-40.7667,144.9667,284.07,70,99,6.26,AU,1728571289
182,talent,42.2457,-122.7887,285.3,85,98,0.06,US,1728571290
183,timbuktu,16.7735,-3.0074,314.14,12,13,4.51,ML,1728571292
184,spassk,52.747,87.7545,277.6,91,89,1.28,RU,1728571293
185,turochak,52.2576,87.1224,280.42,86,100,1.42,RU,1728571294
186,noumea,-22.2763,166.4572,293.47,84,76,3.29,NC,1728571296
187,samus',56.7475,84.6992,273.28,60,100,1.59,RU,1728571297
188,al artawiyah,26.5053,45.3444,304.37,15,0,4.81,SA,1728571298
189,birao,10.2849,22.7882,304.02,56,33,2.39,CF,1728571300
190,fortuna foothills,32.6578,-114.4119,297.2,46,0,0.0,US,1728571301
191,manismata,-2.4667,111.0333,297.52,98,100,0.68,ID,1728571302
192,long beach,33.767,-118.1892,290.55,94,100,0.89,US,1728571038
193,smithers,54.7804,-127.1743,272.33,100,75,0.0,CA,1728571305
194,niteroi,-22.8833,-43.1036,296.09,83,100,6.17,BR,1728571035
195,luderitz,-26.6481,15.1594,291.42,59,0,6.24,NA,1728571308
196,suntar,62.1444,117.6319,271.07,95,100,1.09,RU,1728571309
197,longyearbyen,78.2186,15.6401,277.06,75,75,10.29,SJ,1728571089
198,kuala belait,4.5833,114.1833,299.95,83,97,1.16,BN,1728571312
199,taunggyi,20.7833,97.0333,291.41,94,15,0.94,MM,1728571313
200,meadow lake,34.8014,-106.5436,296.86,19,2,0.92,US,1728571314
201,keflavik,64.0049,-22.5624,274.39,75,75,9.26,IS,1728571316
202,saint-philippe,-21.3585,55.7679,294.81,81,76,6.3,RE,1728571317
203,jaguey grande,22.5269,-81.1286,303.03,69,67,4.54,CU,1728571318
204,enewetak,11.3474,162.3373,301.37,78,93,4.37,MH,1728571320
205,lebu,-37.6167,-73.65,286.72,74,88,2.61,CL,1728571321
206,fang,19.9169,99.2145,294.79,97,3,0.1,TH,1728571322
207,bhimunipatnam,17.8833,83.4333,301.88,81,61,2.36,IN,1728571324
208,grand-popo,6.2804,1.8225,301.81,70,32,4.59,BJ,1728571325
209,el haouaria,37.05,11.0144,303.16,73,97,8.8,TN,1728571326
210,vinh,18.6667,105.6667,297.2,77,90,0.79,VN,1728571328
211,sinabang,2.4803,96.3801,298.73,89,96,2.28,ID,1728571329
212,progreso,21.2833,-89.6667,301.46,77,100,4.72,MX,1728571331
213,kareli,22.9167,79.0667,298.56,72,71,0.57,IN,1728571333
214,arkalyk,50.2486,66.9114,288.75,42,76,3.56,KZ,1728571334
215,chinhoyi,-17.3667,30.2,302.62,9,3,3.59,ZW,1728571335
216,santa ana,33.7456,-117.8678,290.36,91,100,2.06,US,1728571336
217,el granada,37.5027,-122.4694,288.03,89,40,3.09,US,1728571337
218,happy valley-goose bay,53.3168,-60.3315,282.32,93,100,5.14,CA,1728571339
219,mejit,10.2753,170.8646,301.1,77,100,4.66,MH,1728571340
220,antalaha,-14.9003,50.2788,297.48,68,31,6.73,MG,1728571342
221,thompson,55.7435,-97.8558,279.24,93,75,1.54,CA,1728571343
222,nanaimo,49.1663,-123.936,283.02,89,20,3.09,CA,1728571345
223,sittwe,20.15,92.9,301.13,80,0,3.55,MM,1728571346
224,pisco,-13.7,-76.2167,291.18,82,100,2.57,PE,1728571348
225,santa cruz,-17.8,-63.1667,297.18,73,75,2.57,BO,1728570797
226,maloye ganyushkino,46.6,49.2667,290.94,44,35,5.22,KZ,1728571352
227,torghay,49.6339,63.4981,290.32,43,100,5.88,KZ,1728571353
228,wailua homesteads,22.0669,-159.378,298.59,94,0,7.2,US,1728571354
229,kapuskasing,49.4169,-82.4331,279.2,87,20,2.57,CA,1728571356
230,rio grande,-32.035,-52.0986,289.84,90,100,10.24,BR,1728571211
231,coquimbo,-29.9533,-71.3436,289.0,82,75,3.6,CL,1728571358
232,kailua-kona,19.6406,-155.9956,298.13,72,0,2.57,US,1728571360
233,badagry,6.4167,2.8833,302.05,69,30,4.53,NG,1728571361
234,haiku-pauwela,20.9219,-156.3051,297.62,88,100,4.63,US,1728571362
235,shizuoka,34.9769,138.3831,291.86,78,22,3.45,JP,1728571356
236,crane,31.3974,-102.3501,297.84,38,0,3.17,US,1728571176
237,tanda,26.55,82.65,300.05,56,99,2.38,IN,1728571366
238,suva,-18.1416,178.4415,295.86,100,75,0.0,FJ,1728571368
239,fontaines-sur-saone,45.8338,4.8483,292.33,64,100,2.57,FR,1728571369
240,mount pearl,47.5166,-52.7813,287.34,94,75,4.63,CA,1728571370
241,vila franca do campo,37.7167,-25.4333,296.38,82,21,9.84,PT,1728571372
242,arkhangel'sk,64.5401,40.5433,275.21,60,40,6.0,RU,1728571373
243,pyt-yakh,60.7499,72.8582,270.72,82,86,2.82,RU,1728571374
244,saint-pierre,-21.3393,55.4781,295.97,68,0,11.83,RE,1728571132
245,tolanaro,-25.0319,46.9987,298.19,69,20,12.86,MG,1728571377
246,altai,46.3722,96.2583,278.12,40,0,1.18,MN,1728571379
247,salalah,17.0151,54.0924,301.2,74,20,4.12,OM,1728571380
248,vysokiy,58.35,60.05,269.83,65,94,4.96,RU,1728571381
249,cockburn town,21.4612,-71.1419,302.68,79,96,4.47,TC,1728571154
250,oriximina,-1.7656,-55.8661,310.0,33,33,2.55,BR,1728571384
251,sarangani,5.4033,125.4636,302.29,71,5,3.01,PH,1728571385
252,la passe,45.5549,-0.8967,289.98,73,5,5.17,FR,1728571387
253,ceres,37.5949,-120.9577,290.48,74,0,0.0,US,1728571373
254,myitkyina,25.3833,97.4,295.23,99,59,0.77,MM,1728571390
255,verkhneyarkeyevo,55.4505,54.3145,276.0,73,100,8.3,RU,1728571391
256,remire-montjoly,4.9167,-52.2667,306.17,62,75,5.66,GF,1728571392
257,canutama,-6.5339,-64.3831,305.09,51,100,1.01,BR,1728571394
258,rundu,-17.9333,19.7667,309.11,7,4,5.18,NA,1728571396
259,khandud,36.9513,72.318,281.31,52,90,2.81,AF,1728571398
260,porto seguro,-16.4497,-39.0647,300.44,78,75,5.66,BR,1728571203
261,kingston,17.997,-76.7936,305.46,66,20,3.6,JM,1728571290
262,leskovac,42.9981,21.9461,296.65,57,9,2.88,RS,1728571402
263,klyuchi,52.2667,79.1667,281.4,40,100,6.62,RU,1728571404
264,queenstown,-31.8976,26.8753,305.57,12,80,8.15,ZA,1728571405
265,fedorovka,53.6314,62.7078,277.07,72,100,9.62,KZ,1728571407
266,tombodu,8.1333,-10.6167,301.57,71,91,1.24,SL,1728571408
267,dhidhdhoo,6.8833,73.1,300.28,83,100,10.69,MV,1728571409
268,amboasary,-25.0333,46.3833,299.03,60,0,6.0,MG,1728571411
269,staphorst,52.645,6.2111,285.93,67,86,5.37,NL,1728571412
270,san martin,-33.081,-68.4681,291.27,59,0,5.17,AR,1728571413
271,punta arenas,-53.15,-70.9167,282.21,57,40,11.32,CL,1728571415
272,kidal,18.4411,1.4078,313.18,8,47,6.33,ML,1728571416
273,eufaula,31.8913,-85.1455,293.11,68,0,3.09,US,1728571417
274,tarariras,-34.2833,-57.6167,291.66,72,100,3.46,UY,1728571419
275,bubaque,11.2833,-15.8333,298.13,84,100,7.33,GW,1728571420
276,ranau,5.9538,116.6641,294.55,98,15,0.49,MY,1728571421
277,al jawf,29.5,38.75,303.01,18,0,3.65,SA,1728571423
278,baotou,40.6522,109.8222,286.6,33,0,1.38,CN,1728571424
279,aliade,7.2964,8.487,302.7,67,73,1.94,NG,1728571425
280,margate,51.3813,1.3862,284.19,69,100,0.89,GB,1728571427
281,yoloten,37.2989,62.3597,297.81,22,27,3.65,TM,1728571428
282,gassol,8.5333,10.4667,304.81,59,47,1.66,NG,1728571429
283,isafjordur,66.0755,-23.124,274.17,86,100,4.63,IS,1728571431
284,ghiror,27.1833,78.8,301.3,46,100,3.3,IN,1728571432
285,touros,-5.1989,-35.4608,302.04,57,74,6.72,BR,1728571433
286,singkil,-7.9855,111.4161,300.1,72,69,1.53,ID,1728571435
287,lekki,6.3607,4.8333,302.29,75,74,2.28,NG,1728571436
288,at taj,24.2049,23.2857,307.35,15,0,4.74,LY,1728571437
289,pangody,65.85,74.4859,270.81,78,83,7.19,RU,1728571439
290,tataouine,32.9297,10.4518,310.5,15,0,7.69,TN,1728571440
291,imbituba,-28.24,-48.6703,290.33,92,100,6.71,BR,1728571179
292,puerto aysen,-45.4,-72.7,282.37,82,99,2.32,CL,1728571443
293,kauhava,63.103,23.0713,284.66,94,100,5.01,FI,1728571444
294,quellon,-43.1167,-73.6167,282.13,89,100,2.14,CL,1728571445
295,sao gabriel da cachoeira,-0.1303,-67.0892,301.04,78,20,1.54,BR,1728571448
296,okhotsk,59.3833,143.3,276.53,79,93,5.05,RU,1728571450
297,ponta delgada,37.7333,-25.6667,296.55,83,40,12.35,PT,1728571451
298,tiksi,71.6872,128.8694,264.64,94,97,2.32,RU,1728571452
299,as sulayyil,20.4607,45.5779,305.19,13,0,3.69,SA,1728571453
300,karratha,-20.7377,116.8463,302.32,34,25,4.41,AU,1728571455
301,korla,41.7597,86.1469,291.13,36,0,0.85,CN,1728571456
302,sao joao da barra,-21.6403,-41.0511,295.2,79,100,6.82,BR,1728571457
303,mogocha,53.7333,119.7667,273.49,77,100,1.18,RU,1728571459
304,katsuura,35.1333,140.3,292.26,78,74,6.91,JP,1728571460
305,greymouth,-42.4667,171.2,278.16,94,23,2.28,NZ,1728571461
306,quibdo,5.6947,-76.6611,298.34,94,100,1.54,CO,1728571463
307,santander,43.4647,-3.8044,292.37,70,20,4.12,ES,1728571464
308,kavak,41.0783,36.0425,290.16,92,100,2.04,TR,1728571465
309,taishan,22.2514,112.7799,296.74,74,32,1.28,CN,1728571467
310,fale old settlement,-9.3852,-171.2468,300.97,76,50,5.23,TK,1728571468
311,port saint john's,-31.6229,29.5448,301.45,56,25,7.43,ZA,1728571469
312,boca do acre,-8.7522,-67.3978,307.37,43,89,0.86,BR,1728571471
313,gaiman,-43.2897,-65.4929,293.26,24,99,4.06,AR,1728571472
314,lagos,6.5833,3.75,303.06,67,43,3.22,NG,1728570802
315,bushehr,28.9684,50.8385,304.2,55,0,3.09,IR,1728571476
316,caleta de carquin,-11.0925,-77.6267,292.38,81,86,4.3,PE,1728571478
317,bandar-e genaveh,29.5791,50.517,302.97,60,0,1.97,IR,1728571479
318,dudinka,69.4058,86.1778,267.87,91,91,6.52,RU,1728571480
319,gurupi,-11.7292,-49.0686,314.45,17,8,2.28,BR,1728571345
320,basco,20.4487,121.9702,300.6,79,25,6.87,PH,1728571483
321,kachia,9.8667,7.95,302.62,56,13,1.87,NG,1728571484
322,kabo,7.6994,18.629,300.99,74,80,1.65,CF,1728571486
323,tadine,-21.55,167.8833,294.49,79,100,4.97,NC,1728571487
324,bay roberts,47.5999,-53.2648,288.18,93,100,2.24,CA,1728571488
325,mar del plata,-38.0023,-57.5575,291.16,72,75,5.81,AR,1728571408
326,olyokminsk,60.3736,120.4264,269.79,99,91,1.23,RU,1728571491
327,dryden,49.7833,-92.7503,282.31,66,0,5.66,CA,1728571493
328,arno,60.1167,18.6333,285.61,95,100,9.63,SE,1728571495
329,chardara,41.2547,67.9692,295.6,39,72,4.41,KZ,1728571496
330,gannan,47.9147,123.5031,278.88,34,33,1.88,CN,1728571498
331,taguatinga,-12.3857,-46.5711,311.32,19,57,2.34,BR,1728571499
332,igarka,67.4667,86.5833,268.8,93,98,6.9,RU,1728571500
333,alotau,-10.3069,150.4462,297.17,97,99,1.94,PG,1728571502
334,ugoofaaru,5.6667,73.0,300.69,81,100,9.51,MV,1728571503
335,tual,-5.6667,132.75,300.69,84,66,4.1,ID,1728571504
336,chonchi,-42.6128,-73.8092,282.66,97,100,1.32,CL,1728571506
337,kaohsiung,22.6163,120.3133,299.12,82,75,2.57,TW,1728571507
338,st. john's,47.5649,-52.7093,287.81,95,75,4.63,CA,1728571380
339,cheat lake,39.672,-79.8534,284.51,75,0,1.54,US,1728571510
340,zapala,-38.8992,-70.0544,293.58,17,8,6.82,AR,1728571511
341,nuevitas,21.5453,-77.2644,305.41,59,97,5.78,CU,1728571512
342,piacabucu,-10.4056,-36.4344,302.82,57,19,6.86,BR,1728571514
343,morristown,36.214,-83.2949,290.39,68,0,1.54,US,1728571470
344,potosi,-19.5836,-65.7531,284.63,35,0,7.72,BO,1728571516
345,la ronge,55.1001,-105.2842,278.29,87,75,3.6,CA,1728571518
346,ahmadpur sial,30.6754,71.7483,302.6,19,0,1.28,PK,1728571449
347,nema,57.5067,50.5011,275.37,64,100,6.27,RU,1728571520
348,santa marta de ortigueira,43.6833,-7.85,292.18,66,51,1.34,ES,1728571522
349,cannonvale,-20.2833,148.7,296.81,79,43,5.29,AU,1728571523
350,talnakh,69.4865,88.3972,266.01,93,97,5.4,RU,1728571524
351,el dorado,38.7666,-120.5177,292.69,36,84,1.34,US,1728571526
352,lompoc,34.6391,-120.4579,285.09,85,55,2.57,US,1728571527
353,gejiu,23.306,103.1635,286.45,95,98,1.5,CN,1728571528
354,nurota,40.5614,65.6886,292.98,40,0,3.81,UZ,1728571530
355,mpophomeni,-29.5682,30.1862,299.9,33,77,2.82,ZA,1728571531
356,nantucket,41.2835,-70.0995,286.21,67,0,8.75,US,1728571418
357,andovoranto,-18.95,49.1,294.76,74,5,2.39,MG,1728571534
358,tobol,52.6844,62.5794,282.53,50,100,9.82,KZ,1728571535
359,pangai,-19.8,-174.35,297.59,83,86,6.39,TO,1728571536
360,puerto santa,-8.9906,-78.6456,291.26,87,99,3.84,PE,1728571538
361,carnarvon,-24.8667,113.6333,296.14,73,1,3.2,AU,1728571539
362,corrientes,-27.4806,-58.8341,292.58,89,100,5.14,AR,1728571540
363,chanthaburi,12.8333,102.1667,293.1,96,99,0.77,TH,1728571542
364,puerto armuelles,8.2833,-82.8667,298.76,87,100,3.13,PA,1728571543
365,port lincoln,-34.7333,135.8667,285.05,69,100,4.94,AU,1728571547
366,vadso,70.0744,29.7487,277.24,75,75,9.26,NO,1728571549
367,naduvattam,11.4833,76.5667,287.6,98,96,1.65,IN,1728571550
368,byron bay,-28.65,153.6167,290.06,86,100,0.87,AU,1728571551
369,rabaul,-4.1967,152.1721,299.32,83,50,2.02,PG,1728571553
370,belmonte,-15.8631,-38.8828,300.86,65,95,3.71,BR,1728571554
371,port hedland,-20.3167,118.5667,300.18,41,8,4.12,AU,1728571555
372,cidreira,-30.1811,-50.2056,291.0,87,100,10.14,BR,1728571557
373,rio brilhante,-21.8019,-54.5464,303.95,49,98,4.79,BR,1728571558
374,holmsund,63.706,20.3641,284.12,100,75,5.81,SE,1728571559
375,gadzhiyevo,69.2551,33.3362,276.31,72,100,10.79,RU,1728571561
376,desaguadero,-16.5656,-69.0417,286.86,28,1,5.18,PE,1728571562
377,jinghong,21.991,100.7341,293.63,98,92,0.92,CN,1728571563
378,sao joao,-8.8756,-36.3667,306.45,26,55,4.12,BR,1728571565
379,canavieiras,-15.675,-38.9472,300.96,63,98,3.2,BR,1728571566
380,siem reap,13.5,104.0,298.39,84,89,1.44,KH,1728571567
381,tacoronte,28.4769,-16.4102,297.33,72,20,2.57,ES,1728571569
382,fort mcmurray,56.7268,-111.381,274.88,93,100,0.0,CA,1728571570
383,urengoy,65.9667,78.3667,270.0,90,84,7.17,RU,1728571571
384,nouadhibou,20.931,-17.0347,307.14,40,7,4.63,MR,1728571573
385,ouahigouya,13.5828,-2.4216,309.41,28,69,2.03,BF,1728571574
386,tyukhtet,56.5389,89.3011,270.26,71,94,1.63,RU,1728571575
387,patterson,37.4716,-121.1297,290.37,65,96,1.32,US,1728571577
388,sao felix do xingu,-6.6447,-51.995,313.4,17,12,1.78,BR,1728571578
389,patong,7.8961,98.2966,299.23,83,95,3.05,TH,1728571579
390,mossel bay,-34.1831,22.146,290.11,73,100,5.47,ZA,1728571396
391,cabo san lucas,22.8909,-109.9124,300.49,74,0,1.53,MX,1728571347
392,upata,8.0086,-62.3989,304.48,47,100,3.97,VE,1728571583
393,edd,13.9297,41.6925,304.38,67,0,3.87,ER,1728571585
394,tazacorte,28.629,-17.9293,298.69,90,40,3.6,ES,1728571586
395,terra santa,-2.1042,-56.4869,311.31,26,13,3.1,BR,1728571587
396,kisangani,0.5167,25.2,300.36,67,95,1.44,CD,1728571589
397,maceio,-9.6658,-35.7353,302.84,65,75,3.6,BR,1728571590
398,hassi messaoud,31.6804,6.0729,313.07,11,0,4.12,DZ,1728571592
399,puerto del rosario,28.5004,-13.8627,298.01,73,20,3.09,ES,1728571593
400,krasnovishersk,60.4078,57.082,271.47,62,2,3.32,RU,1728571594
401,balkashino,52.5167,68.7667,283.69,54,100,8.14,KZ,1728571596
402,brooks,50.5834,-111.8851,277.14,87,91,5.14,CA,1728571374
403,kirkwall,58.9848,-2.9587,280.35,70,20,7.2,GB,1728571600
404,maamba,-17.3667,27.15,304.47,14,0,3.07,ZM,1728571601
405,iskateley,67.6803,53.1512,270.5,89,8,5.15,RU,1728571602
406,sao paulo de olivenca,-3.3783,-68.8725,307.01,50,100,0.05,BR,1728571604
407,aykhal,66.0,111.5,261.03,100,100,0.89,RU,1728571605
408,uruzgan,32.8333,66.0,291.47,24,0,1.52,AF,1728571606
409,filadelfia,39.9523,-75.1638,286.51,57,40,6.17,US,1728571375
410,yeppoon,-23.1333,150.7333,293.73,82,4,7.21,AU,1728571609
411,port-vila,-17.7338,168.3219,295.9,87,21,1.9,VU,1728571610
412,bim son,20.0781,105.8603,297.33,76,90,0.31,VN,1728571612
413,usinsk,65.9939,57.5281,267.34,92,9,3.66,RU,1728571613
414,tofol,5.3248,163.0078,300.88,75,76,1.85,FM,1728571615
415,dammam,26.4344,50.1033,306.21,38,40,4.63,SA,1728571558
416,mount pleasant,32.7941,-79.8626,294.26,73,20,8.23,US,1728571319
417,kinkala,-4.3614,14.7644,303.89,48,98,1.49,CG,1728571618
418,nova olimpia,-14.7972,-57.2881,313.13,24,4,2.79,BR,1728571619
419,geraldton,-28.7667,114.6,290.38,82,9,1.54,AU,1728571621
420,nelson bay,-32.7167,152.15,288.15,89,5,2.24,AU,1728571622
421,vila velha,-20.3297,-40.2925,297.12,88,100,3.6,BR,1728571624
422,porto novo,6.4965,2.6036,303.05,63,24,4.78,BJ,1728571626
423,vuktyl,63.8567,57.3094,271.68,61,0,2.76,RU,1728571627
424,kulhudhuffushi,6.6221,73.07,299.91,85,100,10.52,MV,1728571629
425,sodankyla,67.4167,26.6,276.76,99,100,3.49,FI,1728571630
426,aniva,46.7144,142.5294,277.21,74,100,6.85,RU,1728571633
427,mont-laurier,46.5501,-75.4993,278.53,85,100,4.29,CA,1728571555
428,juan griego,11.0817,-63.9655,304.22,70,54,7.72,VE,1728571635
429,guatire,10.4762,-66.5427,304.68,53,82,1.78,VE,1728571637
430,new norfolk,-42.7826,147.0587,283.66,67,58,3.85,AU,1728571638
431,oranjemund,-28.55,16.4333,290.64,63,66,6.31,NA,1728571639
432,burang,30.25,81.1667,275.27,69,18,3.13,CN,1728571640
433,newman,37.3138,-121.0208,290.39,65,100,0.45,US,1728571642
434,batyrevo,55.0675,47.6111,279.3,66,12,5.21,RU,1728571643
435,fort st. john,56.2499,-120.8529,275.09,75,20,5.66,CA,1728571644
436,xilin hot,43.9667,116.0333,282.16,47,0,6.19,CN,1728571646
437,wakkanai,45.4094,141.6739,285.67,77,100,9.15,JP,1728571647
438,machico,32.7,-16.7667,301.5,77,40,6.69,PT,1728571648
439,constantia,44.1833,28.65,297.53,56,0,0.34,RO,1728571445
440,khorixas,-20.3667,14.9667,310.44,7,0,4.8,NA,1728571651
441,palmer,42.1584,-72.3287,285.66,53,20,3.6,US,1728571652
442,tougan,13.0667,-3.0667,308.05,37,88,0.73,BF,1728571653
443,burutu,5.3509,5.5076,302.07,70,91,4.43,NG,1728571655
444,okondja,-0.6549,13.6753,301.63,57,75,1.55,GA,1728571656
445,viqueque,-8.8673,126.3658,297.95,88,54,0.72,TL,1728571659
446,colonia,50.9333,6.95,288.78,77,20,6.17,DE,1728571660
447,san patricio,28.017,-97.5169,295.12,42,2,1.31,US,1728571661
448,narra,9.3167,118.4,299.36,87,24,1.13,PH,1728571663
449,padang,-0.9492,100.3543,297.18,91,100,2.63,ID,1728571664
450,marat,25.0701,45.4615,304.58,11,0,4.27,SA,1728571665
451,oranjestad,12.524,-70.027,304.77,75,40,5.14,AW,1728571667
452,lensk,60.7253,114.9278,272.93,82,100,3.08,RU,1728571668
453,dien bien phu,21.3833,103.0167,296.4,82,100,1.38,VN,1728571669
454,cuyamel,15.6667,-88.2,299.48,73,100,1.71,HN,1728571671
455,chuguyevka,44.1653,133.8633,282.2,90,69,2.05,RU,1728571672
456,antsiranana,-12.2787,49.2917,301.57,51,20,9.26,MG,1728571673
457,tchaourou,8.8865,2.5975,303.2,62,93,2.07,BJ,1728571674
458,dinghaicun,26.2847,119.7936,295.98,66,0,6.57,CN,1728571675
459,zarghun shahr,32.8473,68.4457,288.73,22,1,3.9,AF,1728571677
460,tawau,4.2498,117.8871,300.22,88,85,2.57,MY,1728571678
461,yanchep,-31.55,115.6833,292.39,62,5,2.95,AU,1728571679
462,mermoz boabab,14.7065,-17.4758,300.03,78,75,7.2,SN,1728571680
463,puerto leguizamo,-0.1934,-74.7819,304.73,51,100,0.84,CO,1728571681
464,kanniyakumari,8.0833,77.5667,299.9,80,100,8.8,IN,1728571682
465,botou,38.0667,116.5667,286.0,31,0,2.95,CN,1728571684
466,es castell,39.8795,4.2854,294.53,64,40,1.54,ES,1728571685
467,tromso,69.6496,18.957,280.16,65,75,7.2,NO,1728571686
468,sur,22.5667,59.5289,302.25,59,0,0.73,OM,1728571689
469,nuuk,64.1835,-51.7216,272.49,100,100,3.09,GL,1728571455
470,mersing,2.4312,103.8405,298.1,94,20,2.57,MY,1728571550
471,axim,4.8699,-2.2405,300.61,77,46,4.49,GH,1728571693
472,shiguai,40.7058,110.2856,283.42,42,2,1.49,CN,1728571695
473,khetia,21.6667,74.5833,299.91,72,90,5.64,IN,1728571696
474,sinjar,36.3209,41.8754,303.09,11,7,3.68,IQ,1728571698
475,zavetnoye,47.1194,43.8903,289.62,45,94,2.45,RU,1728571699
476,lazaro cardenas,17.9583,-102.2,299.37,83,100,1.47,MX,1728571700
477,kendari,-3.945,122.4989,297.41,93,74,0.1,ID,1728571702
478,obo,5.3998,26.4869,300.02,79,50,0.91,CF,1728571703
479,leua,48.2156,18.6071,291.62,69,74,7.28,SK,1728571704
480,taltal,-25.4,-70.4833,291.53,52,0,3.35,CL,1728571706
481,nikolayevsk-on-amure,53.1406,140.73,277.04,94,96,1.98,RU,1728571707
482,novyy urgal,51.0736,132.5642,279.65,66,98,2.22,RU,1728571708
483,tralee,52.2704,-9.7026,285.29,54,40,2.06,IE,1728571710
484,zeya,53.75,127.2667,280.73,85,100,3.55,RU,1728571711
485,miranpur,29.3,77.9333,298.0,53,0,0.37,IN,1728571712
486,mirnyy,62.5353,113.9611,271.38,83,100,1.08,RU,1728571714
487,hadibu,12.65,54.0333,299.31,77,22,0.59,YE,1728571715
488,howrah,22.5892,88.3103,302.15,79,40,2.06,IN,1728571717
489,miranda,3.2499,-76.2281,295.35,89,100,1.35,CO,1728571719
490,malango,-2.9627,119.9001,292.66,99,100,0.85,ID,1728571720
491,labrador city,52.9463,-66.9114,276.1,90,100,6.17,CA,1728571721
492,orcopampa,-15.2661,-72.3417,285.83,20,1,1.63,PE,1728571723
493,port blair,11.6667,92.75,301.17,78,20,1.03,IN,1728571724
494,broken hill,-31.95,141.4333,289.75,28,96,8.51,AU,1728571725
495,odder,55.9731,10.153,284.14,71,26,11.31,DK,1728571726
496,xai-xai,-25.0519,33.6442,296.96,65,0,7.09,MZ,1728571728
497,balkanabat,39.5108,54.3671,296.32,50,7,4.11,TM,1728571729
498,kasempa,-13.4584,25.8338,304.38,10,3,4.56,ZM,1728571730
499,itoman,26.1247,127.6694,295.36,64,27,3.85,JP,1728571733
500,bandon,51.7469,-8.7425,283.92,53,9,5.13,IE,1728571671
501,fort bragg,35.139,-79.006,290.88,50,0,7.2,US,1728571736
502,olinda,-8.0089,-34.8553,302.0,61,20,5.66,BR,1728571460
503,santa ana de yacuma,-13.75,-65.4333,302.12,65,40,5.14,BO,1728571739
504,sarmiento,-45.5882,-69.07,287.96,30,100,9.26,AR,1728571740
505,khovd,48.0056,91.6419,283.08,36,5,0.2,MN,1728571741
506,kasongo-lunda,-6.4667,16.8167,303.52,52,63,2.41,CD,1728571743
507,conceicao da barra,-18.5933,-39.7322,303.35,51,88,3.85,BR,1728571744
508,kamyshlov,56.8428,62.7111,270.67,95,100,7.65,RU,1728571745
509,vladimirskaya,44.5455,40.7933,294.46,33,100,1.88,RU,1728571747
510,grootfontein,-19.5667,18.1167,307.91,8,20,5.66,NA,1728571748
511,merizo village,13.2658,144.6691,300.92,92,100,5.38,GU,1728571749
512,port augusta,-32.5,137.7667,285.58,69,100,7.72,AU,1728571750
513,isiro,2.7739,27.616,298.09,82,25,0.35,CD,1728571752
514,sant'antioco,39.0664,8.4522,294.57,76,100,8.35,IT,1728571753
515,xanthi,41.1414,24.8836,296.47,56,24,2.52,GR,1728571754
516,tsiombe,-25.3,45.4833,296.76,72,0,6.79,MG,1728571756
517,wewak,-3.5534,143.6268,299.53,84,99,1.57,PG,1728571757
518,kalmunai,7.4167,81.8167,299.93,83,48,1.49,LK,1728571617
519,kapa'a,22.0752,-159.319,299.33,94,0,7.2,US,1728571759
520,fisterra,42.9049,-9.2629,289.92,79,11,2.75,ES,1728571760
521,salinas,36.6777,-121.6555,289.14,87,100,1.54,US,1728571604
522,namibe,-15.1961,12.1522,294.64,68,1,5.93,AO,1728571764
523,loreto,22.2667,-101.9667,290.13,42,9,3.56,MX,1728571766
524,buala,-8.145,159.5921,299.26,85,52,2.49,SB,1728571767
525,shakhovskaya,56.0283,35.5097,282.86,79,79,5.21,RU,1728571769
526,dogonbadan,30.3586,50.7981,304.2,33,20,3.09,IR,1728571770
527,fortuna,40.5982,-124.1573,283.67,96,100,1.54,US,1728571771
528,knin,44.0439,16.2,293.15,76,100,5.02,HR,1728571773
529,monrovia,6.3005,-10.7969,300.13,78,96,1.58,LR,1728571774
530,porto sant'elpidio,43.2583,13.7583,294.38,73,1,2.58,IT,1728571548
531,saint-joseph,-21.3667,55.6167,295.36,79,71,6.86,RE,1728571777
532,alik ghund,30.4896,67.5226,287.74,19,0,1.44,PK,1728571778
533,cururupu,-1.8283,-44.8683,307.69,38,11,3.36,BR,1728571780
534,nobeoka,32.5833,131.6667,292.04,82,68,2.53,JP,1728571781
535,pangoa,-12.1167,-73.0,301.11,58,94,2.11,PE,1728571782
536,yatou,37.15,122.3833,287.13,87,1,2.38,CN,1728571784
537,jiuquan,39.7432,98.5174,286.21,25,33,0.48,CN,1728571785
538,ostersund,63.1792,14.6357,276.4,95,100,5.14,SE,1728571786
539,aizawl,23.7333,92.7167,293.21,99,5,0.73,IN,1728571788
540,rolla,37.9514,-91.7713,290.77,63,0,1.54,US,1728571789
541,al burayqah,30.4062,19.5739,307.02,31,14,1.85,LY,1728571790
542,moreira sales,-24.0622,-53.0069,293.32,88,100,3.93,BR,1728571793
543,lago da pedra,-4.3333,-45.1667,311.16,28,8,2.14,BR,1728571795
544,annotto bay,18.2717,-76.7652,305.79,56,24,0.59,JM,1728571796
545,deols,46.8293,1.7043,287.7,67,96,5.36,FR,1728571797
546,pobe,6.9801,2.6649,301.82,72,74,3.17,BJ,1728571799
547,zdolbuniv,50.5206,26.2425,291.89,64,0,4.76,UA,1728571800
548,maisi,43.0395,41.2621,290.01,60,100,1.72,GE,1728571803
549,junin,-34.5838,-60.9433,296.22,36,73,2.1,AR,1728571564
550,dunay,42.8803,132.3375,286.52,78,4,3.5,RU,1728571805
551,el nido,11.1858,119.3956,299.9,94,48,0.61,PH,1728571807
552,fort leonard wood,37.7057,-92.1572,293.4,40,0,1.27,US,1728571808
553,laojunmiao,39.8333,97.7333,283.34,36,31,0.06,CN,1728571809
554,boguchany,58.3814,97.4531,270.29,78,99,3.66,RU,1728571811
555,carutapera,-1.195,-46.02,304.61,55,39,3.77,BR,1728571812
556,najran,17.4924,44.1277,298.68,16,2,4.57,SA,1728571813
557,alice springs,-23.7,133.8833,290.9,25,1,0.0,AU,1728571814
558,ancud,-41.8697,-73.8203,282.73,95,100,2.9,CL,1728571815
559,freetown,8.484,-13.2299,300.62,78,98,2.89,SL,1728571817
560,colombo,6.9319,79.8478,299.12,82,100,6.3,LK,1728571818
561,sechura,-5.5569,-80.8222,295.67,64,56,4.57,PE,1728571819
562,kavaratti,10.5669,72.642,299.47,88,100,6.75,IN,1728571820
563,panacan,9.2463,118.4082,300.51,82,19,1.29,PH,1728571822
564,belomorsk,64.5232,34.7668,276.23,86,100,5.14,RU,1728571823
565,port douglas,-16.4833,145.4667,297.65,84,54,3.31,AU,1728571824
566,xinzhi,36.4989,111.7047,290.9,28,0,1.48,CN,1728571825
567,jumla,29.2747,82.1838,282.7,92,20,1.48,NP,1728571826
568,barah,13.7,30.3667,309.39,25,70,1.2,SD,1728571828
569,wismar,53.9,11.4667,286.07,88,100,9.41,DE,1728571829
570,khandyga,62.6667,135.6,273.27,77,100,3.25,RU,1728571830
571,taroa,8.7058,171.2275,300.73,78,100,3.6,MH,1728571831
572,coronel dorrego,-38.7187,-61.2873,295.35,34,79,4.85,AR,1728571833
573,sidi slimane,34.2648,-5.926,300.17,48,99,5.11,MA,1728571834
574,ambon,-3.6954,128.1814,302.03,92,0,2.06,ID,1728571836
575,miri,4.4148,114.0089,302.23,84,40,0.0,MY,1728571837
576,aioun,16.6614,-9.6149,309.34,30,99,2.03,MR,1728571839
577,amahai,-3.3333,128.9167,298.82,84,100,1.78,ID,1728571840
578,alaghsas,17.0187,8.0168,312.09,11,0,5.14,NE,1728571841
579,uliastay,47.7417,96.8444,276.85,46,4,1.55,MN,1728571843
580,lata,40.1629,-8.3327,294.06,45,7,2.15,PT,1728571844
581,puerto ayacucho,5.6639,-67.6236,304.34,61,79,1.49,VE,1728571845
582,praia da vitoria,38.7333,-27.0667,298.29,73,75,9.18,PT,1728571847
