City_ID,City,Lat,Lng,Max Temp,Humidity,Cloudiness,Wind Speed,Country,Date
0,port-aux-francais,-49.35,70.2167,1.38,72,19,17.4,TF,1729030681
1,blackmans bay,-43.0167,147.3167,12.63,62,95,3.13,AU,1729030682
2,happy valley-goose bay,53.3168,-60.3315,2.17,93,100,4.63,CA,1729030509
3,adamstown,-25.066,-130.1015,21.25,85,92,7.32,PN,1729030684
4,czarna bialostocka,53.3051,23.2815,5.46,90,18,2.6,PL,1729030685
5,qaqortoq,60.7167,-46.0333,0.53,88,10,0.96,GL,1729030686
6,palikir - national government center,6.9248,158.1611,26.47,100,100,2.57,FM,1729030688
7,edinburgh of the seven seas,-37.0676,-12.3116,11.79,64,6,3.81,SH,1729030689
8,bethel,41.3712,-73.414,11.42,62,20,3.6,US,1729030414
9,grytviken,-54.2811,-36.5092,2.76,88,56,4.54,GS,1729030691
10,nizhneudinsk,54.9076,99.0276,-1.7,79,100,1.33,RU,1729030692
11,butha-buthe,-28.8333,28.5,5.88,74,95,0.48,LS,1729030693
12,tawau,4.2498,117.8871,25.07,94,13,1.34,MY,1729030695
13,ulladulla,-35.35,150.4667,14.48,56,90,0.01,AU,1729030696
14,sisimiut,66.9395,-53.6735,-1.16,77,51,2.28,GL,1729030697
15,staritsa,56.5075,34.9354,4.11,94,86,2.28,RU,1729030698
16,wailua homesteads,22.0669,-159.378,28.44,78,40,6.69,US,1729030699
17,saint-pierre,-21.3393,55.4781,20.82,78,0,1.54,RE,1729030700
18,waitangi,-43.9535,-176.5597,9.9,80,99,2.24,NZ,1729030702
19,jamestown,42.097,-79.2353,7.79,67,40,4.63,US,1729030703
20,khandyga,62.6667,135.6,-9.75,94,100,1.18,RU,1729030704
21,ende,-8.8432,121.6623,23.25,90,67,0.38,ID,1729030705
22,cockburn town,21.4612,-71.1419,29.32,72,0,6.89,TC,1729030621
23,port lincoln,-34.7333,135.8667,17.65,82,100,3.04,AU,1729030708
24,tura,25.5198,90.2201,20.24,96,0,1.19,IN,1729030709
25,tiksi,71.6872,128.8694,-15.54,96,70,3.8,RU,1729030710
26,cidreira,-30.1811,-50.2056,18.13,95,100,2.37,BR,1729030711
27,iqaluit,63.7506,-68.5145,0.85,86,100,2.57,CA,1729030712
28,saint-philippe,-21.3585,55.7679,22.24,85,31,3.78,RE,1729030714
29,saudarkrokur,65.7461,-19.6394,1.41,84,100,0.26,IS,1729030715
30,alesund,62.4723,6.1549,12.08,58,75,4.63,NO,1729030716
31,albany,42.6001,-73.9662,8.52,65,89,0.89,US,1729030530
32,baganga,7.5739,126.56,25.52,86,26,2.0,PH,1729030718
33,belmonte,-15.8631,-38.8828,23.4,87,100,3.14,BR,1729030720
34,bilibino,68.0546,166.4372,-11.98,96,100,0.98,RU,1729030721
35,anadyr,64.75,177.4833,1.28,86,20,5.0,RU,1729030722
36,almeirim,-1.5233,-52.5817,28.8,56,62,3.2,BR,1729030723
37,georgetown,5.4112,100.3354,25.96,88,20,0.0,MY,1729030514
38,illizi,26.4833,8.4667,30.4,21,0,3.99,DZ,1729030726
39,lazaro cardenas,17.9583,-102.2,28.88,75,9,3.32,MX,1729030464
40,margaret river,-33.95,115.0667,11.62,88,100,4.44,AU,1729030728
41,saynshand,44.8824,110.1163,8.43,52,99,2.96,MN,1729030729
42,olonkinbyen,70.9221,-8.7187,-0.91,74,73,5.22,SJ,1729030731
43,zouerate,22.7187,-12.4521,31.83,30,1,2.96,MR,1729030732
44,novodvinsk,64.4165,40.8122,0.86,97,100,2.97,RU,1729030734
45,faro,37.0194,-7.9322,20.88,94,75,7.2,PT,1729030735
46,st. john's,47.5649,-52.7093,17.86,96,100,6.69,CA,1729030637
47,paphos,34.7667,32.4167,21.88,73,40,2.06,CY,1729030737
48,san julian,21.0167,-102.1667,24.18,31,7,4.58,MX,1729030738
49,puerto natales,-51.7236,-72.4875,11.25,50,40,11.32,CL,1729030574
50,chos malal,-37.3781,-70.2709,23.64,13,96,1.73,AR,1729030741
51,mbanza-ngungu,-5.25,14.8667,22.87,81,100,3.39,CD,1729030742
52,nadym,65.5333,72.5167,-0.1,89,99,2.61,RU,1729030743
53,ta`u,-14.2336,-169.5144,27.07,70,36,8.08,AS,1729030744
54,aasiaat,68.7098,-52.8699,-5.13,96,88,4.17,GL,1729030745
55,ribeira grande,38.5167,-28.7,19.32,68,81,2.24,PT,1729030747
56,bloemfontein,-29.1211,26.214,12.71,58,18,7.72,ZA,1729030552
57,puerto lempira,15.2667,-83.7667,25.08,83,75,0.0,HN,1729030749
58,eyl,7.9803,49.8164,26.44,81,23,5.72,SO,1729030750
59,ushuaia,-54.8,-68.3,7.81,61,40,6.17,AR,1729030751
60,shihezi,44.3,86.0333,11.17,48,100,1.97,CN,1729030752
61,kodiak,57.79,-152.4072,8.73,66,40,5.14,US,1729030754
62,mogadishu,2.0371,45.3438,25.85,87,28,4.4,SO,1729030755
63,tsiombe,-25.3,45.4833,20.23,85,36,5.13,MG,1729030756
64,yellowknife,62.456,-114.3525,6.34,94,75,1.34,CA,1729030758
65,talakan,50.3167,130.3667,-1.5,50,29,1.51,RU,1729030759
66,fale old settlement,-9.3852,-171.2468,28.48,75,35,3.73,TK,1729030760
67,minas de matahambre,22.5887,-83.9447,28.1,78,65,1.77,CU,1729030761
68,nova sintra,14.8667,-24.7167,27.03,75,36,4.07,CV,1729030763
69,kuching,1.55,110.3333,24.45,96,20,1.54,MY,1729030614
70,chonchi,-42.6128,-73.8092,13.4,71,100,0.15,CL,1729030593
71,pacasmayo,-7.4006,-79.5714,19.26,77,58,6.52,PE,1729030766
72,bardai,11.65,7.2333,24.0,69,94,3.06,NG,1729030767
73,keflavik,64.0049,-22.5624,6.24,93,100,4.12,IS,1729030750
74,sinabang,2.4803,96.3801,26.71,78,100,2.22,ID,1729030771
75,stanley,54.868,-1.6985,11.27,93,75,2.57,GB,1729030504
76,tranqueras,-31.2,-55.75,19.99,98,100,1.94,UY,1729030773
77,noshiro,40.2039,140.0242,18.24,92,100,4.31,JP,1729030774
78,yuzhno-kurilsk,44.0306,145.8556,16.35,98,100,7.18,RU,1729030776
79,zaragoza,41.6561,-0.8773,18.25,78,20,2.57,ES,1729030649
80,queenstown,-31.8976,26.8753,6.68,80,58,3.65,ZA,1729030778
81,muhos,64.808,25.9931,1.96,94,2,2.04,FI,1729030779
82,orapa,-21.2833,25.3667,19.52,66,57,7.75,BW,1729030780
83,makhambet,47.6667,51.5833,5.68,27,100,3.37,KZ,1729030782
84,punta arenas,-53.15,-70.9167,8.06,76,20,8.75,CL,1729030783
85,port augusta,-32.5,137.7667,24.55,46,100,1.82,AU,1729030784
86,kristiansund,63.1115,7.732,7.36,76,75,2.06,NO,1729030785
87,port elizabeth,-33.918,25.5701,16.16,74,40,8.75,ZA,1729030786
88,constantia,44.1833,28.65,12.61,76,5,3.27,RO,1729030788
89,xai-xai,-25.0519,33.6442,19.59,64,77,7.39,MZ,1729030789
90,mammoth lakes,37.6485,-118.9721,21.4,16,0,5.14,US,1729030790
91,suva,-18.1416,178.4415,26.71,78,75,4.12,FJ,1729030791
92,avarua,-21.2078,-159.775,25.03,57,40,5.66,CK,1729030793
93,huilong,31.8111,121.655,20.38,91,100,4.07,CN,1729030794
94,labytnangi,66.6572,66.4183,-2.66,97,79,0.5,RU,1729030730
95,maloye ganyushkino,46.6,49.2667,8.25,49,99,4.22,KZ,1729030797
96,birao,10.2849,22.7882,22.6,91,85,2.78,CF,1729030798
97,thompson,55.7435,-97.8558,9.09,53,75,3.6,CA,1729030800
98,whitehorse,60.7161,-135.0538,7.43,59,40,3.6,CA,1729030801
99,coaticook,45.1334,-71.7991,3.37,98,100,4.92,CA,1729030802
100,crane,31.3974,-102.3501,31.73,10,0,1.98,US,1729030803
101,nemuro,43.3236,145.575,16.84,95,100,9.22,JP,1729030805
102,ketchikan,55.3422,-131.6461,7.41,93,100,2.93,US,1729030806
103,sejenane,37.0572,9.2381,25.65,49,80,2.5,TN,1729030807
104,hawaiian paradise park,19.5933,-154.9731,28.26,74,75,5.14,US,1729030808
105,carnarvon,-24.8667,113.6333,19.53,69,0,3.73,AU,1729030809
106,cabo san lucas,22.8909,-109.9124,35.17,27,0,4.63,MX,1729030648
107,verkhneural'sk,53.8769,59.2106,0.52,58,0,0.71,RU,1729030812
108,praia da vitoria,38.7333,-27.0667,19.14,63,40,9.73,PT,1729030813
109,gavrilov-yam,57.3018,39.8533,5.8,90,100,2.33,RU,1729030814
110,lebu,-37.6167,-73.65,13.12,70,100,2.08,CL,1729030815
111,vylkove,45.4021,29.586,12.82,85,81,6.77,UA,1729030819
112,kita,13.0349,-9.4895,26.12,70,79,0.87,ML,1729030820
113,udachny,66.4167,112.4,-11.98,94,100,8.63,RU,1729030821
114,saipan,15.1355,145.701,29.39,79,20,2.06,MP,1729030665
115,yuksekova,37.5736,44.2872,5.86,75,40,0.0,TR,1729030824
116,nuku'alofa,-21.1333,-175.2,23.19,100,100,4.12,TO,1729030825
117,ust-nera,64.5667,143.2,-10.44,94,100,1.61,RU,1729030826
118,an nuhud,12.7,28.4333,29.97,43,100,0.92,SD,1729030827
119,shahrak,34.1074,64.3052,11.6,34,44,1.24,AF,1729030829
120,hithadhoo,-0.6,73.0833,27.86,77,16,5.02,MV,1729030830
121,papatowai,-46.5619,169.4708,9.68,58,59,2.94,NZ,1729030831
122,tazovsky,67.4667,78.7,-10.84,76,34,4.59,RU,1729030832
123,klaksvik,62.2266,-6.589,9.68,89,100,10.45,FO,1729030835
124,san-pedro,4.7485,-6.6363,24.43,94,61,2.41,CI,1729030836
125,talnakh,69.4865,88.3972,-18.76,93,12,1.09,RU,1729030837
126,tolanaro,-25.0319,46.9987,20.13,79,0,3.5,MG,1729030838
127,wenatchee,47.4235,-120.3103,19.47,58,0,1.54,US,1729030839
128,kailua-kona,19.6406,-155.9956,29.2,79,100,3.6,US,1729030786
129,pudozh,61.8099,36.5345,4.87,87,100,3.56,RU,1729030842
130,lihue,21.9789,-159.3672,28.77,65,40,6.69,US,1729030843
131,college,64.8569,-147.8028,0.6,81,75,0.0,US,1729030844
132,mao,39.8885,4.2658,23.31,73,0,5.66,ES,1729030845
133,longyearbyen,78.2186,15.6401,0.91,86,75,1.54,SJ,1729030846
134,strelka,58.0728,93.0344,0.25,78,100,4.24,RU,1729030848
135,lata,40.1629,-8.3327,19.72,47,100,2.81,PT,1729030849
136,isafjordur,66.0755,-23.124,1.51,92,100,2.21,IS,1729030850
137,ungsang,35.4061,129.1686,17.08,88,99,1.84,KR,1729030851
138,rio grande,-32.035,-52.0986,19.14,91,100,2.23,BR,1729030852
139,mutuali,-14.8706,37.0044,22.59,67,35,3.47,MZ,1729030635
140,inhambane,-23.865,35.3833,21.21,61,100,7.66,MZ,1729030855
141,ar ruseris,11.8659,34.3869,26.04,73,94,3.76,SD,1729030856
142,choyr,46.3611,108.3611,1.49,89,66,5.96,MN,1729030857
143,vila franca do campo,37.7167,-25.4333,19.23,99,18,6.34,PT,1729030858
144,egilsstadir,65.2653,-14.3948,1.95,100,100,0.51,IS,1729030860
145,coquimbo,-29.9533,-71.3436,13.88,74,75,4.12,CL,1729030590
146,palora,-1.7,-77.9333,27.06,82,100,0.52,EC,1729030862
147,ouarzazat,30.9189,-6.8934,18.16,82,40,1.03,MA,1729030863
148,bredasdorp,-34.5322,20.0403,13.84,75,0,7.44,ZA,1729030864
149,suining,30.508,105.5733,20.27,71,44,1.18,CN,1729030866
150,doka,13.5167,35.7667,25.49,56,60,2.67,SD,1729030867
151,taoudenni,22.6783,-3.9836,33.65,18,5,5.24,ML,1729030868
152,lehigh acres,26.6254,-81.6248,29.41,65,26,2.84,US,1729030869
153,laguna,38.421,-121.4238,30.53,44,0,3.09,US,1729030792
154,inari,68.906,27.0288,-0.16,85,9,1.83,FI,1729030872
155,kismayo,-0.3582,42.5454,25.15,86,63,5.44,SO,1729030874
156,hamilton,39.1834,-84.5333,8.69,82,75,3.09,US,1729030875
157,namie,37.4833,141.0,23.32,71,100,2.33,JP,1729030876
158,brisas de zicatela,15.8369,-97.0419,31.29,74,40,3.09,MX,1729030878
159,zaraza,9.3503,-65.3245,29.61,56,100,1.81,VE,1729030879
160,palmas,-10.2128,-48.3603,26.93,69,20,3.6,BR,1729030305
161,touros,-5.1989,-35.4608,25.07,77,100,6.66,BR,1729030881
162,rongelap,11.1635,166.8941,28.73,78,93,8.02,MH,1729030882
163,west island,-12.1568,96.8225,26.99,83,75,5.14,CC,1729030884
164,achinsk,56.2694,90.4993,-1.75,80,83,2.12,RU,1729030885
165,pimenta bueno,-11.6725,-61.1936,30.94,45,83,2.33,BR,1729030888
166,thinadhoo,0.5333,72.9333,27.68,77,88,5.81,MV,1729030889
167,xinyuan,37.3,99.0,0.63,88,100,1.57,CN,1729030890
168,kiunga,-6.1219,141.2906,24.54,92,100,1.67,PG,1729030891
169,hermanus,-34.4187,19.2345,15.45,76,0,7.02,ZA,1729030893
170,igarka,67.4667,86.5833,-21.35,99,22,3.72,RU,1729030894
171,utrik,11.2278,169.8474,28.45,82,99,7.11,MH,1729030895
172,badger,64.8,-147.5333,0.55,86,75,0.0,US,1729030897
173,hammerfest,70.6634,23.6821,3.25,87,75,6.17,NO,1729030642
174,al miqdadiyah,33.9786,44.9369,28.32,21,0,2.13,IQ,1729030899
175,nizhnesortymskiy,62.4397,71.7603,-0.62,80,88,2.21,RU,1729030900
176,glendive,47.1053,-104.7125,21.79,23,0,6.69,US,1729030901
177,mount pearl,47.5166,-52.7813,17.4,96,100,6.69,CA,1729030716
178,novo aripuana,-5.1206,-60.3797,32.4,43,46,1.85,BR,1729030904
179,bossangoa,6.4926,17.4552,20.49,95,100,1.03,CF,1729030905
180,flin flon,54.7682,-101.865,9.91,57,100,3.6,CA,1729030906
181,klyuchi,52.2667,79.1667,-0.55,70,100,1.87,RU,1729030907
182,bucerias,20.75,-105.3333,31.66,74,40,5.14,MX,1729030909
183,puerto ayora,-0.7393,-90.3518,20.86,93,70,3.13,EC,1729030910
184,ahar,38.4774,47.0699,12.17,83,90,2.29,IR,1729030911
185,serov,59.6033,60.5787,-0.16,60,24,1.86,RU,1729030621
186,prenzlau,53.3167,13.8667,5.23,78,0,3.09,DE,1729030913
187,mana,5.6592,-53.7767,26.81,80,31,2.19,GF,1729030915
188,hafnarfjordur,64.0671,-21.9377,6.17,100,75,0.0,IS,1729030916
189,portland,45.5234,-122.6762,19.24,85,100,2.57,US,1729030681
190,whakatane,-37.9585,176.9854,15.84,60,40,2.68,NZ,1729030919
191,freeport,40.6576,-73.5832,13.36,47,0,3.6,US,1729030920
192,sorong,-0.8833,131.25,26.37,85,94,3.24,ID,1729030921
193,namtsy,62.7161,129.6658,-8.42,89,87,1.37,RU,1729030922
194,serowe,-22.3833,26.7167,14.65,78,61,7.22,BW,1729030924
195,ciudad lazaro cardenas,17.9583,-102.2,28.88,75,9,3.32,MX,1729030925
196,hard,47.4941,9.6806,14.58,95,99,0.51,AT,1729030926
197,lyantonde,-0.4031,31.1572,17.53,92,56,2.1,UG,1729030927
198,okhotsk,59.3833,143.3,-3.36,83,75,3.48,RU,1729030928
199,port mathurin,-19.6833,63.4167,22.91,70,88,6.16,MU,1729030930
200,homer,59.6425,-151.5483,8.94,78,0,2.06,US,1729030809
201,selfoss,63.9331,-20.9971,7.25,93,100,5.92,IS,1729030932
202,trincomalee,8.5711,81.2335,26.25,85,100,7.79,LK,1729030933
203,el granada,37.5027,-122.4694,23.88,76,0,6.17,US,1729030934
204,yarmouth,41.7057,-70.2286,12.2,64,0,10.28,US,1729030936
205,wongsorejo,-7.9908,114.4009,24.2,63,84,5.38,ID,1729030937
206,shalqar,47.8333,59.6,1.02,60,0,3.0,KZ,1729030938
207,scarborough,54.2797,-0.4044,12.69,88,100,4.47,GB,1729030853
208,tagaw-bay,35.6994,66.0616,11.37,70,89,1.02,AF,1729030941
209,tralee,52.2704,-9.7026,14.32,96,90,3.6,IE,1729030795
210,celestun,20.8667,-90.4,27.25,82,21,3.42,MX,1729030945
211,mersing,2.4312,103.8405,23.95,94,20,2.57,MY,1729030946
212,richards bay,-28.783,32.0377,18.04,53,99,3.43,ZA,1729030947
213,ponta delgada,37.7333,-25.6667,19.4,63,20,4.63,PT,1729030949
214,petropavlovsk-kamchatsky,53.0452,158.6483,1.33,69,0,1.0,RU,1729030950
215,karratha,-20.7377,116.8463,23.86,32,5,5.89,AU,1729030951
216,nishinoomote,30.7333,131.0,25.76,85,28,8.72,JP,1729030952
217,antonio enes,-16.2325,39.9086,24.42,84,23,2.4,MZ,1729030954
218,minas de marcona,-15.2119,-75.1103,16.7,64,35,5.04,PE,1729030955
219,ubari,26.5921,12.7805,26.07,30,0,4.21,LY,1729030956
220,cienaga,11.007,-74.2476,29.07,79,75,5.66,CO,1729030957
221,pacific grove,36.6177,-121.9166,20.76,87,40,4.63,US,1729030959
222,saldanha,-33.0117,17.9442,16.03,66,0,5.26,ZA,1729030960
223,gadzhiyevo,69.2551,33.3362,4.21,79,45,7.77,RU,1729030961
224,komusan il-tong,42.1092,129.7,2.95,83,1,2.41,KP,1729030962
225,istaravshan,39.9142,69.0033,5.74,73,100,4.27,TJ,1729030964
226,alnashi,56.1874,52.4792,2.45,39,100,2.93,RU,1729030965
227,mokhsogollokh,61.4681,128.9203,-3.95,80,83,1.52,RU,1729030966
228,carutapera,-1.195,-46.02,25.91,76,53,4.08,BR,1729030968
229,leer,53.2316,7.461,8.3,85,84,6.87,DE,1729030969
230,kapoeta,4.7717,33.5903,25.51,66,100,2.97,SS,1729030970
231,san juan,-31.5375,-68.5364,26.9,37,0,2.63,AR,1729030862
232,coronel dorrego,-38.7187,-61.2873,16.63,62,10,4.04,AR,1729030973
233,choibalsan,48.0667,114.5,0.73,75,100,3.67,MN,1729030975
234,teykovo,56.858,40.5369,5.76,93,100,1.62,RU,1729030815
235,gunjur,13.2019,-16.7339,26.12,78,100,1.74,GM,1729030978
236,holmsund,63.706,20.3641,5.53,80,0,2.68,SE,1729030979
237,nelson,-41.2833,173.2833,14.6,76,72,2.04,NZ,1729030980
238,troitsko-pechorsk,62.7084,56.1964,0.12,73,98,3.65,RU,1729030754
239,ancud,-41.8697,-73.8203,12.66,69,99,1.11,CL,1729030982
240,lumphat,13.4878,106.9816,22.52,98,100,1.18,KH,1729030984
241,santa cruz,-17.8,-63.1667,32.03,58,0,6.17,BO,1729030877
242,vilyuysk,63.7553,121.6247,-5.78,96,98,2.95,RU,1729030986
243,chibougamau,49.9168,-74.3659,4.79,60,75,8.23,CA,1729030987
244,serdar,38.9764,56.2757,11.12,47,10,4.86,TM,1729030988
245,baise city,23.8997,106.6133,20.56,95,85,0.45,CN,1729030990
246,roma,43.2128,-75.4557,7.08,85,75,3.6,US,1729030890
247,sitka,57.0531,-135.33,8.94,87,100,1.54,US,1729030992
248,east london,-33.0153,27.9116,16.18,62,91,7.24,ZA,1729030820
249,enewetak,11.3474,162.3373,29.09,79,100,8.6,MH,1729030994
250,isiro,2.7739,27.616,19.06,99,100,0.35,CD,1729030996
251,corbin,36.9487,-84.0969,8.25,78,100,2.57,US,1729030997
252,san ciro de acosta,21.6333,-99.8167,30.4,27,0,2.14,MX,1729030998
253,pisco,-13.7,-76.2167,19.03,82,40,3.6,PE,1729030999
254,primorsko-akhtarsk,46.0497,38.1747,14.37,48,100,5.26,RU,1729031000
255,krasavino,60.9614,46.4814,3.68,89,100,4.98,RU,1729031001
256,invercargill,-46.4,168.35,10.57,64,13,0.45,NZ,1729031003
257,weno,7.4515,151.8468,30.97,79,75,3.09,FM,1729031004
258,bria,6.5423,21.9863,19.72,98,64,1.67,CF,1729031005
259,tamanrasset,22.785,5.5228,22.95,25,40,1.03,DZ,1729031006
260,sirte,31.2089,16.5887,23.05,70,0,3.66,LY,1729031007
261,kafin hausa,12.2375,9.908,28.61,48,37,3.78,NG,1729031008
262,ebon,4.582,168.6964,28.88,78,100,6.56,MH,1729031010
263,bouca,6.5105,18.2733,20.24,96,100,1.1,CF,1729031012
264,nanao,37.05,136.9667,19.89,97,100,3.65,JP,1729031013
265,marondera,-18.1853,31.5519,13.45,94,100,3.92,ZW,1729031014
266,susuman,62.7833,148.1667,-6.43,95,100,2.07,RU,1729031016
267,afaahiti,-17.75,-149.2833,23.43,73,39,1.53,PF,1729031017
268,kinchil,20.9167,-89.95,32.81,81,31,3.15,MX,1729031018
269,volkhov,59.9258,32.3382,6.01,88,100,3.19,RU,1729031019
270,dudinka,69.4058,86.1778,-18.44,94,8,3.48,RU,1729031020
271,tavda,58.0425,65.2726,-0.47,73,9,1.7,RU,1729031021
272,biryusinsk,55.9634,97.8235,-0.59,75,100,3.82,RU,1729031023
273,ar ruways,24.1103,52.7306,29.61,71,73,5.23,AE,1729030780
274,san antonio de pale,-1.4014,5.6325,25.69,77,7,3.03,GQ,1729031025
275,kamiiso,41.8167,140.65,16.21,94,75,2.06,JP,1729031026
276,kayangel,8.0823,134.7173,26.95,81,93,3.59,PW,1729031028
277,oppdal,62.5943,9.6912,1.88,82,100,5.13,NO,1729031029
278,bol'sherech'ye,56.0925,74.6272,-0.67,70,32,1.95,RU,1729031031
279,ilulissat,69.2167,-51.1,-2.99,74,100,7.72,GL,1729031032
280,brigantine,39.4101,-74.3646,13.34,49,75,4.12,US,1729031033
281,taltal,-25.4,-70.4833,17.83,69,27,2.91,CL,1729031035
282,zhirnovsk,50.9845,44.7735,5.33,79,100,5.56,RU,1729031037
283,araria,26.15,87.5167,21.82,81,14,1.58,IN,1729031038
284,fisterra,42.9049,-9.2629,17.67,94,100,3.33,ES,1729031039
285,tomaszow lubelski,50.4477,23.4162,8.0,81,99,2.51,PL,1729031040
286,macherla,16.4833,79.4333,24.36,92,100,0.79,IN,1729031042
287,mugia,43.1041,-9.2179,17.73,94,100,1.75,ES,1729031043
288,the pas,53.8251,-101.2541,11.01,50,75,4.63,CA,1729031044
289,sandnessjoen,66.0217,12.6316,10.12,90,100,13.11,NO,1729031046
290,golden valley,45.0097,-93.3491,12.34,43,0,5.14,US,1729031047
291,kerikeri,-35.2268,173.9474,16.38,60,89,2.34,NZ,1729031048
292,mahina,-17.5065,-149.489,27.87,65,0,2.57,PF,1729031050
293,abepura,-2.6333,140.5833,26.45,89,40,0.51,ID,1729031052
294,auterive,43.351,1.478,17.96,83,100,8.05,FR,1729030993
295,gibara,21.1097,-76.1317,27.68,83,94,4.86,CU,1729031054
296,aral,40.5156,81.2636,16.37,28,25,3.26,CN,1729031055
297,cordele,31.9635,-83.7824,20.99,40,100,0.0,US,1729031057
298,mumford,5.2618,-0.759,25.1,89,10,3.13,GH,1729031058
299,lubny,50.0163,32.9969,8.32,87,100,2.29,UA,1729031059
300,la passe,45.5549,-0.8967,19.24,83,97,7.47,FR,1729031060
301,camacupa,-12.0167,17.4833,16.88,84,27,1.27,AO,1729031062
302,jayapura,-2.5333,140.7,26.66,95,100,2.08,ID,1729031063
303,gouyave,12.1646,-61.7296,28.43,74,20,5.66,GD,1729031065
304,colonia,50.9333,6.95,13.31,86,100,4.12,DE,1729030911
305,puerto rico,-26.796,-55.024,20.77,99,99,1.34,AR,1729031068
306,tabou,4.423,-7.3528,24.89,90,90,3.06,CI,1729031070
307,vilyuchinsk,52.9306,158.4028,2.15,74,5,0.92,RU,1729031071
308,katsuura,35.1333,140.3,24.3,76,80,5.79,JP,1729031072
309,quemado de guines,22.7853,-80.2536,27.01,83,91,3.28,CU,1729031073
310,orange walk,17.8333,-88.8333,27.08,92,93,1.23,BZ,1729031074
311,mocajuba,-2.5842,-49.5072,28.32,59,60,0.44,BR,1729031075
312,flying fish cove,-10.4217,105.6791,24.82,83,40,3.09,CX,1729031077
313,freetown,8.484,-13.2299,25.28,86,35,2.09,SL,1729031078
314,berberati,4.2612,15.7922,20.06,99,99,0.74,CF,1729031079
315,amherst,41.3978,-82.2224,9.76,75,75,3.6,US,1729030916
316,ogden,41.223,-111.9738,26.51,28,0,1.54,US,1729031081
317,quepos,9.4236,-84.1652,27.77,79,72,1.23,CR,1729031082
318,codrington,-38.2667,141.9667,16.12,88,70,4.59,AU,1729031084
319,chamical,-30.36,-66.314,27.22,53,100,2.63,AR,1729031085
320,punta del este,-34.9667,-54.95,16.06,100,100,4.63,UY,1729031086
321,lagunas,-5.2269,-75.6753,33.61,42,74,0.25,PE,1729031087
322,sao francisco,-15.9486,-44.8644,28.41,44,100,1.84,BR,1729031089
323,shingu,33.7333,135.9833,21.14,91,100,1.63,JP,1729030850
324,vila velha,-20.3297,-40.2925,23.97,80,75,3.6,BR,1729031092
325,sosnovo-ozerskoye,52.5249,111.5418,-6.24,81,60,4.93,RU,1729031093
326,gizo,-8.103,156.8419,28.51,74,100,1.76,SB,1729031095
327,egersund,58.4513,5.9997,8.31,81,30,6.49,NO,1729031096
328,yorkton,51.2167,-102.4677,12.91,41,40,7.2,CA,1729031097
329,loango,-4.6719,11.8312,24.73,88,96,3.75,CG,1729031099
330,kodungallur,10.2167,76.2167,25.0,94,100,0.88,IN,1729031100
331,zapadnaya dvina,56.259,32.0745,5.27,90,63,1.62,RU,1729031102
332,malaryta,51.7905,24.074,9.05,80,100,2.64,BY,1729031104
333,qarauyl,48.9451,79.255,-1.77,73,9,1.79,KZ,1729031105
334,inarajan village,13.2736,144.7484,30.44,84,100,1.25,GU,1729031107
335,hadibu,12.65,54.0333,25.97,80,95,2.71,YE,1729031111
336,zaghouan,36.4029,10.1429,23.13,69,80,4.45,TN,1729031112
337,mar del plata,-38.0023,-57.5575,13.62,92,33,4.02,AR,1729030506
338,mathba,22.2855,89.9629,24.11,81,15,1.64,BD,1729031115
339,ormara,25.2088,64.6357,28.3,58,99,4.21,PK,1729031116
340,lionel town,17.8101,-77.2406,28.74,76,35,5.3,JM,1729031118
341,temiskaming shores,47.4938,-79.7153,4.89,80,100,6.77,CA,1729031119
342,lompoc,34.6391,-120.4579,23.96,74,0,5.66,US,1729030869
343,ca mau,9.1769,105.15,23.62,96,100,1.37,VN,1729031121
344,esteli,13.0919,-86.3538,24.4,82,76,1.53,NI,1729031123
345,basco,20.4487,121.9702,28.12,75,100,7.56,PH,1729031124
346,kedrovyy,56.1667,91.8167,-2.61,88,96,1.96,RU,1729031125
347,pico truncado,-46.7949,-67.9573,19.81,24,62,10.73,AR,1729031127
348,embi,48.8264,58.1442,0.95,57,0,2.49,KZ,1729031128
349,muisne,0.6,-80.0333,24.64,79,100,3.82,EC,1729031129
350,marsabit,2.3284,37.9899,22.4,49,86,6.79,KE,1729031130
351,tevriz,57.509,72.4042,-0.15,93,44,1.79,RU,1729031132
352,acajutla,13.5928,-89.8275,28.71,70,98,2.68,SV,1729031133
353,greystones,53.1408,-6.0631,15.1,95,100,0.89,IE,1729031134
354,riyadh,24.6877,46.7219,26.85,22,0,4.25,SA,1729031120
355,torbat-e jam,35.244,60.6225,12.39,63,3,2.68,IR,1729031137
356,kuna,43.4918,-116.4201,26.52,25,0,0.0,US,1729031138
357,billings,45.7833,-108.5007,26.83,24,20,2.68,US,1729031017
358,suntar,62.1444,117.6319,-3.0,88,100,3.41,RU,1729031140
359,uturoa,-16.7333,-151.4333,24.72,65,14,1.11,PF,1729031142
360,mabaruma,8.2,-59.7833,26.19,79,86,1.94,GY,1729031143
361,tshabong,-26.05,22.45,25.12,33,88,10.6,BW,1729031131
362,krasnozerskoye,53.9828,79.2374,-0.49,65,53,1.65,RU,1729031148
363,tuymazy,54.6067,53.7097,2.75,45,42,2.07,RU,1729031149
364,kavieng,-2.5744,150.7967,28.63,74,100,6.26,PG,1729031151
365,kuressaare,58.2481,22.5039,5.97,87,7,2.57,EE,1729031152
366,masterton,-40.9597,175.6575,10.23,55,69,3.23,NZ,1729031153
367,nuuk,64.1835,-51.7216,-0.66,80,100,2.57,GL,1729031154
368,holualoa,19.6228,-155.9522,27.13,78,100,3.6,US,1729031155
369,pangoa,-12.1167,-73.0,30.14,49,40,1.11,PE,1729031157
370,bontang,0.1333,117.5,24.58,91,78,3.14,ID,1729031158
371,mirnyy,62.5353,113.9611,-8.33,97,100,0.62,RU,1729031159
372,namibe,-15.1961,12.1522,21.39,83,89,3.26,AO,1729031160
373,san patricio,28.017,-97.5169,32.97,28,0,4.16,US,1729031162
374,atafu village,-8.5421,-172.5159,28.34,75,8,3.49,TK,1729031163
375,padang,-0.9492,100.3543,25.03,83,100,3.07,ID,1729031164
376,i-n-salah,27.1935,2.4607,32.89,18,100,4.63,DZ,1729031165
377,tazacorte,28.629,-17.9293,23.42,99,75,1.79,ES,1729031167
378,tindouf,27.6711,-8.1474,26.25,34,0,1.54,DZ,1729031168
379,vorgashor,67.5833,63.95,-6.03,87,100,3.65,RU,1729031169
380,new norfolk,-42.7826,147.0587,13.84,58,100,1.96,AU,1729031170
381,nema,57.5067,50.5011,3.9,64,100,3.38,RU,1729031172
382,fortuna,40.5982,-124.1573,23.29,69,20,5.14,US,1729031173
383,san ramon,37.7799,-121.978,28.33,51,0,6.17,US,1729031174
384,vadso,70.0744,29.7487,1.09,86,0,5.66,NO,1729031175
385,jianshui,23.6363,102.8264,15.9,98,63,1.35,CN,1729031176
386,arraial do cabo,-22.9661,-42.0278,20.98,88,0,5.66,BR,1729031178
387,jokioinen,60.8016,23.48,-0.06,94,0,1.92,FI,1729031179
388,jalqani,12.4486,34.2186,27.4,61,86,3.88,SD,1729031180
389,chivhu,-19.0211,30.8922,13.28,92,98,4.69,ZW,1729031181
390,vanimo,-2.6741,141.3028,26.62,90,100,1.97,PG,1729031182
391,sao joao da barra,-21.6403,-41.0511,22.05,78,49,5.45,BR,1729031184
392,broome,42.2506,-75.833,7.4,63,20,4.63,US,1729031185
393,qingdao,36.0986,120.3719,11.78,82,0,2.0,CN,1729031186
394,belel,7.05,14.4333,15.05,95,100,0.86,CM,1729031188
395,motygino,58.1831,94.7592,-0.49,81,100,4.38,RU,1729031189
396,luderitz,-26.6481,15.1594,13.7,92,4,1.04,NA,1729031190
397,nar'yan-mar,67.6713,53.087,1.43,75,100,6.73,RU,1729031191
398,karachi,24.9056,67.0822,28.9,61,16,2.06,PK,1729031192
399,daru,-9.0763,143.2092,27.15,79,43,5.52,PG,1729031194
400,shasta lake,40.6804,-122.3708,28.93,37,45,3.12,US,1729031131
401,smithers,54.7804,-127.1743,11.18,58,75,1.03,CA,1729031196
402,kas,36.2018,29.6377,22.51,82,10,1.43,TR,1729031198
403,kill devil hills,36.0307,-75.676,16.66,51,0,2.06,US,1729031200
404,pineda de mar,41.6276,2.6889,21.59,100,93,1.84,ES,1729031201
405,parabel',58.6978,81.4825,-1.05,94,97,2.67,RU,1729031202
406,leava,-14.3,-178.1667,27.03,79,51,6.75,WF,1729031204
407,conduaga,8.862,117.4893,25.3,91,100,1.73,PH,1729031205
408,dombarovskiy,50.7587,59.5386,-1.25,62,0,1.92,RU,1729031206
409,harstad,68.799,16.5293,4.53,92,95,10.28,NO,1729031207
410,kilindoni,-7.9139,39.6668,25.18,76,21,4.04,TZ,1729031208
411,at taj,24.2049,23.2857,23.97,35,0,4.62,LY,1729031210
412,leninskiy,54.2781,37.4558,5.74,90,97,1.73,RU,1729031211
413,kamina,-8.7386,24.9906,18.89,87,87,0.68,CD,1729031212
414,castillos,-34.1667,-53.8333,16.18,93,51,3.15,UY,1729031213
415,port alfred,-33.5906,26.891,14.54,74,12,1.34,ZA,1729031214
416,enriquillo,17.9,-71.2333,27.1,77,57,3.57,DO,1729031215
417,iskateley,67.6803,53.1512,1.45,75,100,6.7,RU,1729031217
418,puerto baquerizo moreno,-0.9,-89.6,23.55,94,20,5.14,EC,1729031218
419,woodland park,40.8898,-74.1949,12.55,52,75,3.09,US,1729031219
420,colonia menno,-22.3667,-59.8167,35.74,28,18,3.51,PY,1729031220
421,arno,60.1167,18.6333,3.14,79,59,3.5,SE,1729031221
422,tateyama,34.9833,139.8667,24.19,75,79,5.47,JP,1729031223
423,paracale,14.2804,122.7881,25.78,86,100,2.59,PH,1729031224
424,remire-montjoly,4.9167,-52.2667,28.02,78,22,1.03,GF,1729031225
425,ak'ordat,15.5486,37.8867,29.56,30,20,1.19,ER,1729031226
426,kankaanpaa,61.8,22.4167,2.53,88,0,2.18,FI,1729031228
427,bayanhongor,46.7167,100.1167,-3.89,80,7,1.95,MN,1729031229
428,monywa,22.1167,95.1333,24.65,93,18,2.1,MM,1729031230
429,xiongzhou,25.1167,114.3,20.4,97,5,1.17,CN,1729031231
430,yambio,4.5721,28.3955,20.49,96,100,1.32,SS,1729031232
431,kruisfontein,-34.0033,24.7314,11.61,65,0,7.73,ZA,1729031234
432,mossel bay,-34.1831,22.146,11.96,74,0,9.56,ZA,1729031235
433,medvedevo,56.6339,47.804,2.62,97,100,4.0,RU,1729031236
434,bull savanna,17.8868,-77.5902,27.72,73,52,6.91,JM,1729031237
435,malvan,16.0667,73.4667,26.12,86,100,0.89,IN,1729031239
436,arteche,12.2645,125.4048,25.98,87,82,0.25,PH,1729031240
437,longonjo,-12.9067,15.2533,17.74,73,82,1.58,AO,1729031241
438,port macquarie,-31.4333,152.9167,16.71,78,100,0.89,AU,1729031164
439,linfen,36.0889,111.5189,17.49,67,0,1.99,CN,1729031243
440,jining,35.405,116.5814,16.62,85,25,2.83,CN,1729031245
441,kwang binh,17.4833,106.6,24.57,93,98,2.68,VN,1729031246
442,elverum,60.8819,11.5623,1.3,96,82,1.06,NO,1729031247
443,arkalyk,50.2486,66.9114,-1.76,85,26,4.18,KZ,1729031248
444,mariental,-24.6333,17.9667,23.66,15,38,0.19,NA,1729031249
445,sassandra,4.95,-6.0833,24.26,94,74,2.55,CI,1729031251
446,jonkoping,57.7814,14.1562,-0.16,100,0,0.0,SE,1729031252
447,miasskoye,55.2784,61.8905,-4.51,88,0,1.65,RU,1729031253
448,isangel,-19.55,169.2667,23.92,85,100,4.57,VU,1729031254
449,salinas,36.6777,-121.6555,20.99,74,0,5.66,US,1729031069
450,awjilah,29.1081,21.2869,21.86,67,15,4.36,LY,1729031257
451,tarauaca,-8.1614,-70.7656,29.18,57,65,0.96,BR,1729031258
452,hotan,37.0997,79.9269,15.31,25,28,3.32,CN,1729031259
453,dazhou,31.2159,107.5009,18.32,77,23,1.76,CN,1729031260
454,rockdale,33.6501,-84.0166,17.39,40,1,4.12,US,1729031262
455,calvinia,-31.4707,19.776,17.98,13,21,3.47,ZA,1729031263
456,yanam,16.7333,82.2167,25.14,96,100,2.16,IN,1729031264
457,rengasdengklok,-6.1592,107.2981,26.62,75,100,0.83,ID,1729031265
458,bordighera,43.7806,7.6645,21.68,78,100,2.68,IT,1729030984
459,sambava,-14.2667,50.1667,21.37,94,19,2.08,MG,1729031268
460,cihanbeyli,38.6607,32.9244,15.95,50,17,3.47,TR,1729031269
461,baghdad,33.3406,44.4009,22.95,49,0,1.54,IQ,1729031130
462,trenggalek,-8.05,111.7167,21.76,95,100,0.52,ID,1729031271
463,kingston,17.997,-76.7936,27.53,78,75,10.29,JM,1729031193
464,undurkhaan,47.3194,110.6556,0.35,70,81,4.6,MN,1729031274
465,la tuque,47.4334,-72.7824,3.14,93,100,2.57,CA,1729031275
466,shubarshi,48.5872,57.1869,1.41,58,0,2.54,KZ,1729031276
467,boguchar,49.9358,40.545,6.68,96,100,1.88,RU,1729031278
468,vikulovo,56.8167,70.6107,0.22,84,6,1.93,RU,1729031279
469,eirunepe,-6.6603,-69.8736,29.13,55,83,1.55,BR,1729031280
470,levuka,50.1834,-105.4011,22.85,25,100,6.17,CA,1729031281
471,dawei,14.0833,98.2,24.5,94,52,1.54,MM,1729031283
472,vernon,50.2581,-119.2691,12.74,94,100,1.03,CA,1729031284
473,vail,32.0479,-110.712,33.48,9,0,2.68,US,1729031285
474,mount isa,-20.7333,139.5,27.87,39,2,4.12,AU,1729031286
475,coahuayana de hidalgo,18.7,-103.6583,29.78,72,32,2.11,MX,1729031287
476,narvik,68.4384,17.4272,4.34,90,70,4.26,NO,1729031289
477,dunedin,-45.8742,170.5036,10.45,62,8,2.68,NZ,1729031291
478,murashi,59.3999,48.9615,3.22,87,100,4.03,RU,1729031292
479,hirna,9.2167,41.1,18.13,65,91,0.54,ET,1729031293
480,santa cruz do sul,-29.7175,-52.4258,19.84,96,100,1.3,BR,1729031103
481,khanty-mansiysk,61.0042,69.0019,-1.94,64,0,2.0,RU,1729031296
482,tindwari,25.6167,80.5333,24.6,49,69,0.59,IN,1729031297
483,mccomb,31.2438,-90.4531,27.93,39,0,3.6,US,1729031299
484,haiku-pauwela,20.9219,-156.3051,30.12,67,40,12.07,US,1729031300
485,olinda,-8.0089,-34.8553,26.85,74,20,3.6,BR,1729031009
486,newman,37.3138,-121.0208,28.36,25,0,2.66,US,1729031302
487,puerto colombia,10.9878,-74.9547,28.05,78,100,1.98,CO,1729031304
488,boguchany,58.3814,97.4531,-0.06,90,100,5.02,RU,1729031306
489,granja,-3.1203,-40.8261,26.01,69,92,3.36,BR,1729031308
490,lubumbashi,-11.6609,27.4794,18.16,82,75,1.63,CD,1729031309
491,noosa heads,-26.3833,153.15,19.76,81,76,2.74,AU,1729031310
492,nha trang,12.25,109.1833,26.0,92,100,2.25,VN,1729031311
493,hayang,35.9133,128.82,16.87,94,75,0.51,KR,1729031313
494,namdrik,5.5994,168.1028,29.47,74,55,5.82,MH,1729031314
495,boca do acre,-8.7522,-67.3978,32.05,45,83,1.65,BR,1729031316
496,mumbwa,-14.9783,27.0619,20.82,70,56,2.16,ZM,1729031318
497,lorengau,-2.0226,147.2712,25.51,92,100,2.8,PG,1729031319
498,ninh binh,20.2539,105.975,23.86,93,43,1.97,VN,1729031320
499,lyubim,58.3625,40.6843,4.89,96,98,2.0,RU,1729031323
500,tofol,5.3248,163.0078,27.88,89,100,5.14,FM,1729031324
501,novaya igirma,57.1334,103.9112,-3.6,89,100,4.56,RU,1729031326
502,miyaly,48.8844,53.7836,3.3,43,90,2.91,KZ,1729031327
503,dzidzantun,21.25,-89.05,28.21,73,4,2.94,MX,1729031328
504,barinitas,8.7622,-70.4111,24.28,82,100,2.2,VE,1729031329
505,darsi,15.7695,79.6777,24.11,94,100,1.64,IN,1729031330
506,ambodifotatra,-16.9833,49.85,24.09,86,6,5.91,MG,1729031332
507,fountain,38.6822,-104.7008,22.36,27,20,9.77,US,1729031333
508,oblivskaya,48.5362,42.5014,9.17,93,81,2.61,RU,1729031334
509,sur,22.5667,59.5289,26.35,86,100,2.55,OM,1729031335
510,stuhr,53.0333,8.75,7.99,82,0,5.14,DE,1729031337
511,belinskiy,52.9647,43.4165,3.69,88,100,3.4,RU,1729031338
512,santiago tangamandapio,19.95,-102.4333,24.63,47,2,1.92,MX,1729031339
513,essaouira,31.5125,-9.77,20.72,88,40,3.6,MA,1729031341
514,cruzeiro do sul,-29.5128,-51.9853,21.4,87,100,1.11,BR,1729031342
515,kazanskoye,55.6448,69.235,-2.16,89,18,1.29,RU,1729031343
516,hirara,24.8,125.2833,25.92,100,20,6.69,JP,1729031345
517,la ronge,55.1001,-105.2842,12.14,54,40,4.12,CA,1729031346
518,otyniya,48.7377,24.8611,7.05,90,98,2.85,UA,1729031347
519,pirae,-17.5167,-149.5333,28.01,65,0,2.57,PF,1729031349
520,tual,-5.6667,132.75,27.33,76,98,6.39,ID,1729031350
521,yen bai,21.7,104.8667,23.3,94,94,0.35,VN,1729031351
522,axams,47.2081,11.2869,9.6,93,100,2.41,AT,1729031352
523,cahors,44.4167,1.3333,18.5,77,92,6.84,FR,1729031354
524,kovdor,67.5662,30.4758,-0.89,93,9,1.77,RU,1729031355
525,chimore,-16.9833,-65.1333,33.77,34,80,2.18,BO,1729031356
526,kuhdasht,33.535,47.6061,18.75,33,1,2.26,IR,1729031357
527,ulaangom,49.9811,92.0667,2.09,64,100,2.49,MN,1729031358
528,sihanoukville,10.6093,103.5296,25.97,94,40,0.51,KH,1729031359
529,san miguel el alto,21.0167,-102.35,24.44,34,6,3.24,MX,1729031361
530,paradip garh,20.3167,86.6167,26.47,80,88,0.09,IN,1729031362
531,sovetskoye,52.2861,85.4131,-1.91,84,71,1.35,RU,1729031363
532,lamu,-2.2717,40.902,24.29,84,21,4.11,KE,1729031364
533,veragua arriba,19.5833,-70.3333,26.1,89,96,3.77,DO,1729031366
534,dzhambeyty,50.2536,52.595,3.47,32,100,3.04,KZ,1729031367
535,ujae,8.9322,165.7642,29.08,78,43,5.43,MH,1729031368
536,margate,51.3813,1.3862,14.37,88,100,1.34,GB,1729031116
537,kununurra,-15.7667,128.7333,26.99,78,82,0.0,AU,1729031371
538,dryden,49.7833,-92.7503,8.16,49,20,3.09,CA,1729031372
539,port saint john's,-31.6229,29.5448,15.95,71,100,4.2,ZA,1729031374
540,broken hill,-31.95,141.4333,22.47,51,54,6.15,AU,1729031375
541,dalhart,36.0595,-102.5133,22.01,24,0,11.83,US,1729031376
542,dowa,-13.654,33.9375,19.69,64,100,1.39,MW,1729031377
543,tataouine,32.9297,10.4518,21.66,69,4,3.19,TN,1729031379
544,howrah,22.5892,88.3103,28.0,83,40,0.0,IN,1729031380
545,boryeong,36.3493,126.5977,16.94,79,100,3.03,KR,1729031381
546,fuglafjordur,62.244,-6.814,9.28,90,100,8.05,FO,1729031383
547,ji'an,27.1172,114.9793,20.87,97,99,1.52,CN,1729031384
548,wuyishan,28.0047,117.8114,20.36,98,98,0.16,CN,1729031385
549,lautoka,-17.6167,177.4667,24.92,83,100,0.0,FJ,1729031386
550,sulak,43.2734,47.5146,16.16,78,100,9.8,RU,1729031387
551,tinongan,10.215,123.0353,24.94,88,85,1.15,PH,1729031388
552,vicuna,-30.0319,-70.7081,28.21,25,0,2.39,CL,1729031391
553,port isabel,26.0734,-97.2086,31.15,58,0,1.79,US,1729031392
554,pervomayskoye,43.919,46.7102,15.16,73,100,6.54,RU,1729031393
555,trairi,-3.2778,-39.2689,25.51,74,33,5.1,BR,1729031360
556,alaghsas,17.0187,8.0168,32.2,12,1,4.4,NE,1729031396
557,marathon,44.9,-89.7668,7.84,63,40,5.66,US,1729031397
558,kidal,18.4411,1.4078,33.08,14,51,3.55,ML,1729031398
559,axim,4.8699,-2.2405,25.29,87,24,2.77,GH,1729031400
560,kabwe,-14.4469,28.4464,21.0,56,83,1.78,ZM,1729031401
561,nampula,-15.1165,39.2666,23.97,78,75,2.57,MZ,1729031402
562,banda aceh,5.5577,95.3222,27.36,71,100,2.49,ID,1729031404
563,hami,42.8,93.45,15.52,29,14,2.22,CN,1729031405
564,sangin,32.0728,64.8359,21.05,11,0,2.63,AF,1729031406
565,nizhnyaya tavda,57.6731,66.1725,-0.43,76,1,1.75,RU,1729031407
566,chaoyang,41.5703,120.4586,5.69,39,0,1.58,CN,1729031409
567,nago,26.5881,127.9761,26.52,88,22,1.29,JP,1729031410
568,ranau,5.9538,116.6641,21.86,95,77,0.52,MY,1729031411
569,mil'kovo,55.6078,37.7956,8.52,61,100,1.82,RU,1729031413
570,caleta de carquin,-11.0925,-77.6267,18.32,81,28,2.89,PE,1729031414
571,riohacha,11.5444,-72.9072,25.06,78,40,3.6,CO,1729031250
572,pimentel,-6.8367,-79.9342,20.16,73,40,9.77,PE,1729031418
573,hassi messaoud,31.6804,6.0729,28.92,32,0,2.06,DZ,1729031419
